{
  "name": "ga400_north",
  "description": "GA-400 from Sandy Springs to Buckhead",
  "start_location": "GA-400, Sandy Springs, GA",
  "end_location": "GA-400, Buckhead, Atlanta, GA",
  "waypoints": [
    {
      "latitude": 33.9320,
      "longitude": -84.3590,
      "street_name": "GA-400 at Northridge Rd (Sandy Springs)",
      "speed_limit": 65,
      "has_traffic_light": false,
      "traffic_control": "none"
    },
    {
      "latitude": 33.9150,
      "longitude": -84.3610,
      "street_name": "GA-400 at Abernathy Rd",
      "speed_limit": 65,
      "has_traffic_light": false,
      "traffic_control": "none"
    },
    {
      "latitude": 33.8980,
      "longitude": -84.3620,
      "street_name": "GA-400 at Hammond Dr",
      "speed_limit": 65,
      "has_traffic_light": false,
      "traffic_control": "none"
    },
    {
      "latitude": 33.8820,
      "longitude": -84.3650,
      "street_name": "GA-400 at Glenridge Dr",
      "speed_limit": 65,
      "has_traffic_light": false,
      "traffic_control": "none"
    },
    {
      "latitude": 33.8680,
      "longitude": -84.3680,
      "street_name": "GA-400 at Lenox Rd (Buckhead)",
      "speed_limit": 65,
      "has_traffic_light": false,
      "traffic_control": "none"
    },
    {
      "latitude": 33.8520,
      "longitude": -84.3650,
      "street_name": "GA-400 at Piedmont Rd",
      "speed_limit": 65,
      "has_traffic_light": false,
      "traffic_control": "none"
    },
    {
      "latitude": 33.8420,
      "longitude": -84.3630,
      "street_name": "GA-400 / I-285 Interchange",
      "speed_limit": 55,
      "has_traffic_light": false,
      "traffic_control": "none"
    },
    {
      "latitude": 33.8280,
      "longitude": -84.3660,
      "street_name": "GA-400 at Sidney Marcus Blvd",
      "speed_limit": 55,
      "has_traffic_light": false,
      "traffic_control": "none"
    }
  ]
}
