{
  "name": "andrew_martinez_base_to_work___buckhead",
  "description": "Andrew Martinez: Base \u2192 Work___Buckhead",
  "start_location": "33.9526, -84.5499",
  "end_location": "33.84, -84.382",
  "waypoints": [
    {
      "latitude": 33.9526,
      "longitude": -84.5499,
      "street_name": "Residential Driveway",
      "speed_limit": 15,
      "has_traffic_light": false,
      "traffic_control": "none"
    },
    {
      "latitude": 33.949713,
      "longitude": -84.545594,
      "street_name": "Riverside Drive",
      "speed_limit": 25,
      "has_traffic_light": false,
      "traffic_control": "none"
    },
    {
      "latitude": 33.946825,
      "longitude": -84.541289,
      "street_name": "Club Drive",
      "speed_limit": 25,
      "has_traffic_light": false,
      "traffic_control": "none"
    },
    {
      "latitude": 33.943938,
      "longitude": -84.536984,
      "street_name": "Johnson Ferry Road",
      "speed_limit": 35,
      "has_traffic_light": false,
      "traffic_control": "none"
    },
    {
      "latitude": 33.941052,
      "longitude": -84.53268,
      "street_name": "Northpoint Parkway",
      "speed_limit": 45,
      "has_traffic_light": false,
      "traffic_control": "none"
    },
    {
      "latitude": 33.938164,
      "longitude": -84.528375,
      "street_name": "Moreland Avenue",
      "speed_limit": 35,
      "has_traffic_light": true,
      "traffic_control": "traffic_light"
    },
    {
      "latitude": 33.935276,
      "longitude": -84.524069,
      "street_name": "Buford Highway",
      "speed_limit": 55,
      "has_traffic_light": false,
      "traffic_control": "none"
    },
    {
      "latitude": 33.932389,
      "longitude": -84.519765,
      "street_name": "Aqualand Drive",
      "speed_limit": 35,
      "has_traffic_light": false,
      "traffic_control": "yield"
    },
    {
      "latitude": 33.929503,
      "longitude": -84.51546,
      "street_name": "Highway 5",
      "speed_limit": 55,
      "has_traffic_light": false,
      "traffic_control": "none"
    },
    {
      "latitude": 33.926615,
      "longitude": -84.511154,
      "street_name": "I-75 North",
      "speed_limit": 70,
      "has_traffic_light": false,
      "traffic_control": "none"
    },
    {
      "latitude": 33.923728,
      "longitude": -84.506849,
      "street_name": "Greenwood Avenue",
      "speed_limit": 45,
      "has_traffic_light": false,
      "traffic_control": "none"
    },
    {
      "latitude": 33.920841,
      "longitude": -84.502543,
      "street_name": "Steve Reynolds Boulevard",
      "speed_limit": 45,
      "has_traffic_light": false,
      "traffic_control": "none"
    },
    {
      "latitude": 33.917954,
      "longitude": -84.498239,
      "street_name": "Druid Hills Road",
      "speed_limit": 45,
      "has_traffic_light": true,
      "traffic_control": "traffic_light"
    },
    {
      "latitude": 33.915067,
      "longitude": -84.493934,
      "street_name": "Drew Campground Road",
      "speed_limit": 45,
      "has_traffic_light": false,
      "traffic_control": "none"
    },
    {
      "latitude": 33.91218,
      "longitude": -84.489628,
      "street_name": "Webb Bridge Road",
      "speed_limit": 45,
      "has_traffic_light": false,
      "traffic_control": "none"
    },
    {
      "latitude": 33.909292,
      "longitude": -84.485323,
      "street_name": "Crossville Road",
      "speed_limit": 45,
      "has_traffic_light": false,
      "traffic_control": "none"
    },
    {
      "latitude": 33.906405,
      "longitude": -84.481018,
      "street_name": "Veterans Memorial Highway",
      "speed_limit": 55,
      "has_traffic_light": false,
      "traffic_control": "none"
    },
    {
      "latitude": 33.903518,
      "longitude": -84.476712,
      "street_name": "Greenwood Avenue",
      "speed_limit": 45,
      "has_traffic_light": false,
      "traffic_control": "none"
    },
    {
      "latitude": 33.900631,
      "longitude": -84.472408,
      "street_name": "Cheshire Bridge Road",
      "speed_limit": 45,
      "has_traffic_light": false,
      "traffic_control": "none"
    },
    {
      "latitude": 33.897744,
      "longitude": -84.468103,
      "street_name": "West Wesley Road",
      "speed_limit": 45,
      "has_traffic_light": false,
      "traffic_control": "none"
    },
    {
      "latitude": 33.894857,
      "longitude": -84.463797,
      "street_name": "Peachtree Industrial Blvd",
      "speed_limit": 45,
      "has_traffic_light": true,
      "traffic_control": "traffic_light"
    },
    {
      "latitude": 33.891969,
      "longitude": -84.459493,
      "street_name": "Castleberry Road",
      "speed_limit": 45,
      "has_traffic_light": false,
      "traffic_control": "none"
    },
    {
      "latitude": 33.889083,
      "longitude": -84.455187,
      "street_name": "I-20 East",
      "speed_limit": 70,
      "has_traffic_light": false,
      "traffic_control": "none"
    },
    {
      "latitude": 33.886195,
      "longitude": -84.450882,
      "street_name": "Howell Mill Road",
      "speed_limit": 45,
      "has_traffic_light": false,
      "traffic_control": "none"
    },
    {
      "latitude": 33.883307,
      "longitude": -84.446576,
      "street_name": "Druid Hills Road",
      "speed_limit": 45,
      "has_traffic_light": true,
      "traffic_control": "traffic_light"
    },
    {
      "latitude": 33.880421,
      "longitude": -84.442272,
      "street_name": "Decatur Street",
      "speed_limit": 35,
      "has_traffic_light": false,
      "traffic_control": "none"
    },
    {
      "latitude": 33.877533,
      "longitude": -84.437966,
      "street_name": "Abbotts Bridge Road",
      "speed_limit": 45,
      "has_traffic_light": false,
      "traffic_control": "none"
    },
    {
      "latitude": 33.874647,
      "longitude": -84.433661,
      "street_name": "Aqualand Drive",
      "speed_limit": 45,
      "has_traffic_light": false,
      "traffic_control": "none"
    },
    {
      "latitude": 33.871759,
      "longitude": -84.429357,
      "street_name": "Union Hill Road",
      "speed_limit": 45,
      "has_traffic_light": true,
      "traffic_control": "traffic_light"
    },
    {
      "latitude": 33.868872,
      "longitude": -84.425052,
      "street_name": "Post Road",
      "speed_limit": 45,
      "has_traffic_light": false,
      "traffic_control": "none"
    },
    {
      "latitude": 33.865984,
      "longitude": -84.420746,
      "street_name": "Pharr Road",
      "speed_limit": 45,
      "has_traffic_light": false,
      "traffic_control": "none"
    },
    {
      "latitude": 33.863098,
      "longitude": -84.41644,
      "street_name": "Pleasant Hill Road",
      "speed_limit": 45,
      "has_traffic_light": false,
      "traffic_control": "none"
    },
    {
      "latitude": 33.860211,
      "longitude": -84.412136,
      "street_name": "Pine Street",
      "speed_limit": 35,
      "has_traffic_light": false,
      "traffic_control": "none"
    },
    {
      "latitude": 33.857322,
      "longitude": -84.407831,
      "street_name": "Pleasant Hill Road",
      "speed_limit": 35,
      "has_traffic_light": false,
      "traffic_control": "none"
    },
    {
      "latitude": 33.854436,
      "longitude": -84.403526,
      "street_name": "Steve Reynolds Boulevard",
      "speed_limit": 45,
      "has_traffic_light": false,
      "traffic_control": "none"
    },
    {
      "latitude": 33.851549,
      "longitude": -84.39922,
      "street_name": "Johnson Ferry Road",
      "speed_limit": 35,
      "has_traffic_light": true,
      "traffic_control": "traffic_light"
    },
    {
      "latitude": 33.848661,
      "longitude": -84.394916,
      "street_name": "Jimmy Carter Boulevard",
      "speed_limit": 45,
      "has_traffic_light": true,
      "traffic_control": "traffic_light"
    },
    {
      "latitude": 33.845775,
      "longitude": -84.39061,
      "street_name": "Sugarloaf Mills Circle",
      "speed_limit": 25,
      "has_traffic_light": false,
      "traffic_control": "none"
    },
    {
      "latitude": 33.842887,
      "longitude": -84.386304,
      "street_name": "Sugarloaf Mills Circle",
      "speed_limit": 25,
      "has_traffic_light": false,
      "traffic_control": "none"
    },
    {
      "latitude": 33.84,
      "longitude": -84.382,
      "street_name": "Destination Parking",
      "speed_limit": 15,
      "has_traffic_light": false,
      "traffic_control": "none"
    }
  ]
}