{
  "name": "benjamin_rivera_base_to_work___buckhead",
  "description": "Benjamin Rivera: Base \u2192 Work___Buckhead",
  "start_location": "34.207, -84.14",
  "end_location": "33.8484, -84.3782",
  "waypoints": [
    {
      "latitude": 34.207,
      "longitude": -84.14,
      "street_name": "Residential Driveway",
      "speed_limit": 15,
      "has_traffic_light": false,
      "traffic_control": "none"
    },
    {
      "latitude": 34.197804,
      "longitude": -84.146108,
      "street_name": "Highway 92",
      "speed_limit": 55,
      "has_traffic_light": false,
      "traffic_control": "none"
    },
    {
      "latitude": 34.188609,
      "longitude": -84.152215,
      "street_name": "Cumberland Parkway",
      "speed_limit": 45,
      "has_traffic_light": false,
      "traffic_control": "none"
    },
    {
      "latitude": 34.179416,
      "longitude": -84.158323,
      "street_name": "Highway 42",
      "speed_limit": 55,
      "has_traffic_light": false,
      "traffic_control": "none"
    },
    {
      "latitude": 34.17022,
      "longitude": -84.164431,
      "street_name": "Johnson Ferry Road",
      "speed_limit": 35,
      "has_traffic_light": false,
      "traffic_control": "none"
    },
    {
      "latitude": 34.161026,
      "longitude": -84.170538,
      "street_name": "Veterans Memorial Highway",
      "speed_limit": 55,
      "has_traffic_light": false,
      "traffic_control": "none"
    },
    {
      "latitude": 34.15183,
      "longitude": -84.176645,
      "street_name": "Lanier Islands Parkway",
      "speed_limit": 45,
      "has_traffic_light": true,
      "traffic_control": "traffic_light"
    },
    {
      "latitude": 34.142636,
      "longitude": -84.182754,
      "street_name": "Old Peachtree Road",
      "speed_limit": 35,
      "has_traffic_light": false,
      "traffic_control": "yield"
    },
    {
      "latitude": 34.133441,
      "longitude": -84.188863,
      "street_name": "16th Street",
      "speed_limit": 35,
      "has_traffic_light": true,
      "traffic_control": "traffic_light"
    },
    {
      "latitude": 34.124247,
      "longitude": -84.194969,
      "street_name": "Peachtree Industrial Blvd",
      "speed_limit": 45,
      "has_traffic_light": false,
      "traffic_control": "none"
    },
    {
      "latitude": 34.115052,
      "longitude": -84.201078,
      "street_name": "Stone Mountain Freeway",
      "speed_limit": 45,
      "has_traffic_light": false,
      "traffic_control": "none"
    },
    {
      "latitude": 34.105857,
      "longitude": -84.207185,
      "street_name": "Lower Roswell Road",
      "speed_limit": 45,
      "has_traffic_light": false,
      "traffic_control": "none"
    },
    {
      "latitude": 34.096661,
      "longitude": -84.213293,
      "street_name": "Riverside Drive",
      "speed_limit": 45,
      "has_traffic_light": true,
      "traffic_control": "traffic_light"
    },
    {
      "latitude": 34.087467,
      "longitude": -84.2194,
      "street_name": "Buford Highway",
      "speed_limit": 55,
      "has_traffic_light": false,
      "traffic_control": "none"
    },
    {
      "latitude": 34.078271,
      "longitude": -84.225508,
      "street_name": "Peachtree Battle Avenue",
      "speed_limit": 45,
      "has_traffic_light": false,
      "traffic_control": "none"
    },
    {
      "latitude": 34.069078,
      "longitude": -84.231615,
      "street_name": "Cypress Street",
      "speed_limit": 35,
      "has_traffic_light": false,
      "traffic_control": "none"
    },
    {
      "latitude": 34.059881,
      "longitude": -84.237722,
      "street_name": "Haynes Bridge Road",
      "speed_limit": 45,
      "has_traffic_light": true,
      "traffic_control": "traffic_light"
    },
    {
      "latitude": 34.050688,
      "longitude": -84.243832,
      "street_name": "5th Street",
      "speed_limit": 35,
      "has_traffic_light": false,
      "traffic_control": "none"
    },
    {
      "latitude": 34.041492,
      "longitude": -84.249938,
      "street_name": "Powers Ferry Road",
      "speed_limit": 45,
      "has_traffic_light": false,
      "traffic_control": "none"
    },
    {
      "latitude": 34.032298,
      "longitude": -84.256046,
      "street_name": "Peachtree Industrial Blvd",
      "speed_limit": 45,
      "has_traffic_light": false,
      "traffic_control": "none"
    },
    {
      "latitude": 34.023102,
      "longitude": -84.262153,
      "street_name": "Beaver Ruin Road",
      "speed_limit": 45,
      "has_traffic_light": true,
      "traffic_control": "traffic_light"
    },
    {
      "latitude": 34.013909,
      "longitude": -84.268262,
      "street_name": "Monroe Drive",
      "speed_limit": 45,
      "has_traffic_light": false,
      "traffic_control": "none"
    },
    {
      "latitude": 34.004712,
      "longitude": -84.27437,
      "street_name": "10th Street",
      "speed_limit": 35,
      "has_traffic_light": false,
      "traffic_control": "none"
    },
    {
      "latitude": 33.995518,
      "longitude": -84.280477,
      "street_name": "Powder Springs Road",
      "speed_limit": 45,
      "has_traffic_light": false,
      "traffic_control": "none"
    },
    {
      "latitude": 33.986323,
      "longitude": -84.286584,
      "street_name": "West Paces Ferry Road",
      "speed_limit": 45,
      "has_traffic_light": true,
      "traffic_control": "traffic_light"
    },
    {
      "latitude": 33.977128,
      "longitude": -84.292693,
      "street_name": "Peachtree Road",
      "speed_limit": 45,
      "has_traffic_light": false,
      "traffic_control": "none"
    },
    {
      "latitude": 33.967933,
      "longitude": -84.2988,
      "street_name": "Clifton Road",
      "speed_limit": 45,
      "has_traffic_light": false,
      "traffic_control": "none"
    },
    {
      "latitude": 33.958738,
      "longitude": -84.304907,
      "street_name": "Cheshire Bridge Road",
      "speed_limit": 45,
      "has_traffic_light": false,
      "traffic_control": "none"
    },
    {
      "latitude": 33.949543,
      "longitude": -84.311015,
      "street_name": "Browns Bridge Road",
      "speed_limit": 45,
      "has_traffic_light": true,
      "traffic_control": "traffic_light"
    },
    {
      "latitude": 33.940349,
      "longitude": -84.317122,
      "street_name": "Powder Springs Road",
      "speed_limit": 45,
      "has_traffic_light": false,
      "traffic_control": "none"
    },
    {
      "latitude": 33.931153,
      "longitude": -84.32323,
      "street_name": "Union Hill Road",
      "speed_limit": 45,
      "has_traffic_light": false,
      "traffic_control": "none"
    },
    {
      "latitude": 33.921958,
      "longitude": -84.329339,
      "street_name": "Sugarloaf Mills Circle",
      "speed_limit": 45,
      "has_traffic_light": false,
      "traffic_control": "none"
    },
    {
      "latitude": 33.912765,
      "longitude": -84.335447,
      "street_name": "Perimeter Center West",
      "speed_limit": 35,
      "has_traffic_light": false,
      "traffic_control": "none"
    },
    {
      "latitude": 33.90357,
      "longitude": -84.341554,
      "street_name": "Castleberry Road",
      "speed_limit": 35,
      "has_traffic_light": false,
      "traffic_control": "none"
    },
    {
      "latitude": 33.894374,
      "longitude": -84.347662,
      "street_name": "Indian Trail Road",
      "speed_limit": 35,
      "has_traffic_light": false,
      "traffic_control": "none"
    },
    {
      "latitude": 33.885179,
      "longitude": -84.35377,
      "street_name": "Auburn Avenue",
      "speed_limit": 35,
      "has_traffic_light": true,
      "traffic_control": "traffic_light"
    },
    {
      "latitude": 33.875985,
      "longitude": -84.359876,
      "street_name": "LaVista Road",
      "speed_limit": 35,
      "has_traffic_light": false,
      "traffic_control": "none"
    },
    {
      "latitude": 33.86679,
      "longitude": -84.365986,
      "street_name": "Austell Road",
      "speed_limit": 25,
      "has_traffic_light": false,
      "traffic_control": "none"
    },
    {
      "latitude": 33.857595,
      "longitude": -84.372093,
      "street_name": "Club Drive",
      "speed_limit": 25,
      "has_traffic_light": false,
      "traffic_control": "none"
    },
    {
      "latitude": 33.8484,
      "longitude": -84.3782,
      "street_name": "Destination Parking",
      "speed_limit": 15,
      "has_traffic_light": false,
      "traffic_control": "none"
    }
  ]
}