{
  "name": "christopher_garcia_mall_of_georgia_to_suwanee_creek_greenway",
  "description": "Christopher Garcia: Mall_Of_Georgia \u2192 Suwanee_Creek_Greenway",
  "start_location": "34.1289, -84.0561",
  "end_location": "34.045, -84.06",
  "waypoints": [
    {
      "latitude": 34.1289,
      "longitude": -84.0561,
      "street_name": "Residential Driveway",
      "speed_limit": 15,
      "has_traffic_light": false,
      "traffic_control": "none"
    },
    {
      "latitude": 34.126748,
      "longitude": -84.0562,
      "street_name": "Emory Road",
      "speed_limit": 25,
      "has_traffic_light": false,
      "traffic_control": "none"
    },
    {
      "latitude": 34.124597,
      "longitude": -84.056301,
      "street_name": "Samples Road",
      "speed_limit": 25,
      "has_traffic_light": false,
      "traffic_control": "none"
    },
    {
      "latitude": 34.122445,
      "longitude": -84.056399,
      "street_name": "Valley Road",
      "speed_limit": 35,
      "has_traffic_light": false,
      "traffic_control": "none"
    },
    {
      "latitude": 34.120296,
      "longitude": -84.0565,
      "street_name": "I-20 East",
      "speed_limit": 70,
      "has_traffic_light": false,
      "traffic_control": "none"
    },
    {
      "latitude": 34.118143,
      "longitude": -84.0566,
      "street_name": "Highway 78",
      "speed_limit": 55,
      "has_traffic_light": false,
      "traffic_control": "none"
    },
    {
      "latitude": 34.115993,
      "longitude": -84.0567,
      "street_name": "I-285 (Perimeter)",
      "speed_limit": 70,
      "has_traffic_light": false,
      "traffic_control": "none"
    },
    {
      "latitude": 34.113841,
      "longitude": -84.056801,
      "street_name": "Spring Street",
      "speed_limit": 35,
      "has_traffic_light": false,
      "traffic_control": "yield"
    },
    {
      "latitude": 34.111689,
      "longitude": -84.056899,
      "street_name": "Highway 5",
      "speed_limit": 55,
      "has_traffic_light": false,
      "traffic_control": "none"
    },
    {
      "latitude": 34.109539,
      "longitude": -84.057,
      "street_name": "Browns Bridge Road",
      "speed_limit": 45,
      "has_traffic_light": false,
      "traffic_control": "none"
    },
    {
      "latitude": 34.107388,
      "longitude": -84.0571,
      "street_name": "Cobb Parkway",
      "speed_limit": 45,
      "has_traffic_light": false,
      "traffic_control": "none"
    },
    {
      "latitude": 34.105236,
      "longitude": -84.057199,
      "street_name": "Austell Road",
      "speed_limit": 45,
      "has_traffic_light": false,
      "traffic_control": "none"
    },
    {
      "latitude": 34.103085,
      "longitude": -84.0573,
      "street_name": "Indian Trail Road",
      "speed_limit": 45,
      "has_traffic_light": true,
      "traffic_control": "traffic_light"
    },
    {
      "latitude": 34.100934,
      "longitude": -84.057401,
      "street_name": "9th Street",
      "speed_limit": 35,
      "has_traffic_light": false,
      "traffic_control": "none"
    },
    {
      "latitude": 34.098782,
      "longitude": -84.0575,
      "street_name": "Town Center Boulevard",
      "speed_limit": 45,
      "has_traffic_light": false,
      "traffic_control": "none"
    },
    {
      "latitude": 34.09663,
      "longitude": -84.0576,
      "street_name": "Peachtree Road",
      "speed_limit": 45,
      "has_traffic_light": false,
      "traffic_control": "none"
    },
    {
      "latitude": 34.09448,
      "longitude": -84.0577,
      "street_name": "Aqualand Drive",
      "speed_limit": 45,
      "has_traffic_light": true,
      "traffic_control": "traffic_light"
    },
    {
      "latitude": 34.092329,
      "longitude": -84.0578,
      "street_name": "Spalding Drive",
      "speed_limit": 45,
      "has_traffic_light": false,
      "traffic_control": "none"
    },
    {
      "latitude": 34.090176,
      "longitude": -84.0579,
      "street_name": "I-575 North",
      "speed_limit": 70,
      "has_traffic_light": false,
      "traffic_control": "none"
    },
    {
      "latitude": 34.088026,
      "longitude": -84.057999,
      "street_name": "Northside Parkway",
      "speed_limit": 45,
      "has_traffic_light": false,
      "traffic_control": "none"
    },
    {
      "latitude": 34.085874,
      "longitude": -84.058101,
      "street_name": "19th Street",
      "speed_limit": 35,
      "has_traffic_light": true,
      "traffic_control": "traffic_light"
    },
    {
      "latitude": 34.083723,
      "longitude": -84.0582,
      "street_name": "I-985 North",
      "speed_limit": 70,
      "has_traffic_light": false,
      "traffic_control": "none"
    },
    {
      "latitude": 34.081572,
      "longitude": -84.0583,
      "street_name": "Scenic Highway",
      "speed_limit": 55,
      "has_traffic_light": false,
      "traffic_control": "none"
    },
    {
      "latitude": 34.07942,
      "longitude": -84.0584,
      "street_name": "Lakeshore Drive",
      "speed_limit": 45,
      "has_traffic_light": false,
      "traffic_control": "none"
    },
    {
      "latitude": 34.07727,
      "longitude": -84.058499,
      "street_name": "Kimball Bridge Road",
      "speed_limit": 45,
      "has_traffic_light": true,
      "traffic_control": "traffic_light"
    },
    {
      "latitude": 34.075119,
      "longitude": -84.058599,
      "street_name": "Argonne Avenue",
      "speed_limit": 45,
      "has_traffic_light": false,
      "traffic_control": "none"
    },
    {
      "latitude": 34.072966,
      "longitude": -84.0587,
      "street_name": "Crossville Road",
      "speed_limit": 45,
      "has_traffic_light": false,
      "traffic_control": "none"
    },
    {
      "latitude": 34.070816,
      "longitude": -84.058801,
      "street_name": "Abbotts Bridge Road",
      "speed_limit": 45,
      "has_traffic_light": false,
      "traffic_control": "none"
    },
    {
      "latitude": 34.068665,
      "longitude": -84.0589,
      "street_name": "Peachtree Road",
      "speed_limit": 45,
      "has_traffic_light": true,
      "traffic_control": "traffic_light"
    },
    {
      "latitude": 34.066513,
      "longitude": -84.059,
      "street_name": "Westminster Drive",
      "speed_limit": 45,
      "has_traffic_light": false,
      "traffic_control": "none"
    },
    {
      "latitude": 34.064361,
      "longitude": -84.0591,
      "street_name": "I-75 North",
      "speed_limit": 70,
      "has_traffic_light": false,
      "traffic_control": "none"
    },
    {
      "latitude": 34.062211,
      "longitude": -84.059201,
      "street_name": "Highway 316",
      "speed_limit": 55,
      "has_traffic_light": false,
      "traffic_control": "none"
    },
    {
      "latitude": 34.060059,
      "longitude": -84.0593,
      "street_name": "Lakeshore Drive",
      "speed_limit": 35,
      "has_traffic_light": false,
      "traffic_control": "none"
    },
    {
      "latitude": 34.057909,
      "longitude": -84.0594,
      "street_name": "Peachtree Street NE",
      "speed_limit": 35,
      "has_traffic_light": false,
      "traffic_control": "none"
    },
    {
      "latitude": 34.055756,
      "longitude": -84.059499,
      "street_name": "13th Street",
      "speed_limit": 35,
      "has_traffic_light": false,
      "traffic_control": "none"
    },
    {
      "latitude": 34.053604,
      "longitude": -84.059599,
      "street_name": "Cobb Parkway",
      "speed_limit": 45,
      "has_traffic_light": false,
      "traffic_control": "none"
    },
    {
      "latitude": 34.051454,
      "longitude": -84.0597,
      "street_name": "Holiday Road",
      "speed_limit": 35,
      "has_traffic_light": false,
      "traffic_control": "none"
    },
    {
      "latitude": 34.049303,
      "longitude": -84.0598,
      "street_name": "Cobb Parkway",
      "speed_limit": 45,
      "has_traffic_light": false,
      "traffic_control": "none"
    },
    {
      "latitude": 34.047152,
      "longitude": -84.0599,
      "street_name": "Johnson Ferry Road",
      "speed_limit": 25,
      "has_traffic_light": false,
      "traffic_control": "none"
    },
    {
      "latitude": 34.045,
      "longitude": -84.06,
      "street_name": "Destination Parking",
      "speed_limit": 15,
      "has_traffic_light": false,
      "traffic_control": "none"
    }
  ]
}