{
  "name": "christopher_thomas_gym_to_equipment_store",
  "description": "Christopher Thomas: Gym \u2192 Equipment_Store",
  "start_location": "33.7625, -84.3985",
  "end_location": "33.7515, -84.4085",
  "waypoints": [
    {
      "latitude": 33.7625,
      "longitude": -84.3985,
      "street_name": "Parking Exit",
      "speed_limit": 15,
      "has_traffic_light": false,
      "traffic_control": "none"
    },
    {
      "latitude": 33.7612,
      "longitude": -84.3998,
      "street_name": "Bankhead Highway NW",
      "speed_limit": 35,
      "has_traffic_light": false,
      "traffic_control": "none"
    },
    {
      "latitude": 33.7595,
      "longitude": -84.4015,
      "street_name": "Northside Drive NW",
      "speed_limit": 45,
      "has_traffic_light": true,
      "traffic_control": "traffic_light"
    },
    {
      "latitude": 33.7572,
      "longitude": -84.4038,
      "street_name": "Martin Luther King Jr Drive NW",
      "speed_limit": 35,
      "has_traffic_light": true,
      "traffic_control": "traffic_light"
    },
    {
      "latitude": 33.7548,
      "longitude": -84.4058,
      "street_name": "Joseph E Lowery Blvd NW",
      "speed_limit": 35,
      "has_traffic_light": true,
      "traffic_control": "traffic_light"
    },
    {
      "latitude": 33.7528,
      "longitude": -84.4075,
      "street_name": "Donald Lee Hollowell Parkway NW",
      "speed_limit": 45,
      "has_traffic_light": false,
      "traffic_control": "none"
    },
    {
      "latitude": 33.7515,
      "longitude": -84.4085,
      "street_name": "Destination Parking",
      "speed_limit": 15,
      "has_traffic_light": false,
      "traffic_control": "none"
    }
  ]
}
