{
  "name": "daniel_johnson_base_to_work___buckhead",
  "description": "Daniel Johnson: Base \u2192 Work___Buckhead",
  "start_location": "33.9562, -84.0445",
  "end_location": "33.85, -84.375",
  "waypoints": [
    {
      "latitude": 33.9562,
      "longitude": -84.0445,
      "street_name": "Residential Driveway",
      "speed_limit": 15,
      "has_traffic_light": false,
      "traffic_control": "none"
    },
    {
      "latitude": 33.953476,
      "longitude": -84.052975,
      "street_name": "Spring Street",
      "speed_limit": 25,
      "has_traffic_light": false,
      "traffic_control": "none"
    },
    {
      "latitude": 33.950753,
      "longitude": -84.061448,
      "street_name": "Arden Road",
      "speed_limit": 25,
      "has_traffic_light": false,
      "traffic_control": "none"
    },
    {
      "latitude": 33.948031,
      "longitude": -84.069924,
      "street_name": "Beverly Road",
      "speed_limit": 35,
      "has_traffic_light": false,
      "traffic_control": "none"
    },
    {
      "latitude": 33.945308,
      "longitude": -84.078398,
      "street_name": "12th Street",
      "speed_limit": 35,
      "has_traffic_light": false,
      "traffic_control": "none"
    },
    {
      "latitude": 33.942584,
      "longitude": -84.086871,
      "street_name": "Highway 5",
      "speed_limit": 55,
      "has_traffic_light": false,
      "traffic_control": "none"
    },
    {
      "latitude": 33.939861,
      "longitude": -84.095346,
      "street_name": "Highway 5",
      "speed_limit": 55,
      "has_traffic_light": false,
      "traffic_control": "none"
    },
    {
      "latitude": 33.937139,
      "longitude": -84.103821,
      "street_name": "Kimball Bridge Road",
      "speed_limit": 35,
      "has_traffic_light": false,
      "traffic_control": "yield"
    },
    {
      "latitude": 33.934416,
      "longitude": -84.112294,
      "street_name": "Northside Parkway",
      "speed_limit": 45,
      "has_traffic_light": false,
      "traffic_control": "none"
    },
    {
      "latitude": 33.931692,
      "longitude": -84.12077,
      "street_name": "Boulevard",
      "speed_limit": 45,
      "has_traffic_light": false,
      "traffic_control": "none"
    },
    {
      "latitude": 33.928969,
      "longitude": -84.129243,
      "street_name": "Roswell Road",
      "speed_limit": 45,
      "has_traffic_light": false,
      "traffic_control": "none"
    },
    {
      "latitude": 33.926246,
      "longitude": -84.137718,
      "street_name": "West Wesley Road",
      "speed_limit": 45,
      "has_traffic_light": false,
      "traffic_control": "none"
    },
    {
      "latitude": 33.923523,
      "longitude": -84.146193,
      "street_name": "LaVista Road",
      "speed_limit": 45,
      "has_traffic_light": true,
      "traffic_control": "traffic_light"
    },
    {
      "latitude": 33.9208,
      "longitude": -84.154667,
      "street_name": "Rockbridge Road",
      "speed_limit": 45,
      "has_traffic_light": false,
      "traffic_control": "none"
    },
    {
      "latitude": 33.918076,
      "longitude": -84.163141,
      "street_name": "Penn Avenue",
      "speed_limit": 45,
      "has_traffic_light": false,
      "traffic_control": "none"
    },
    {
      "latitude": 33.915354,
      "longitude": -84.171616,
      "street_name": "North Decatur Road",
      "speed_limit": 45,
      "has_traffic_light": false,
      "traffic_control": "none"
    },
    {
      "latitude": 33.912631,
      "longitude": -84.18009,
      "street_name": "Oakdale Road",
      "speed_limit": 45,
      "has_traffic_light": true,
      "traffic_control": "traffic_light"
    },
    {
      "latitude": 33.909909,
      "longitude": -84.188564,
      "street_name": "Duluth Highway",
      "speed_limit": 55,
      "has_traffic_light": false,
      "traffic_control": "none"
    },
    {
      "latitude": 33.907185,
      "longitude": -84.197038,
      "street_name": "Marietta Highway",
      "speed_limit": 55,
      "has_traffic_light": false,
      "traffic_control": "none"
    },
    {
      "latitude": 33.904462,
      "longitude": -84.205512,
      "street_name": "Windy Hill Road",
      "speed_limit": 45,
      "has_traffic_light": false,
      "traffic_control": "none"
    },
    {
      "latitude": 33.901738,
      "longitude": -84.213988,
      "street_name": "Howell Mill Road",
      "speed_limit": 45,
      "has_traffic_light": true,
      "traffic_control": "traffic_light"
    },
    {
      "latitude": 33.899016,
      "longitude": -84.222462,
      "street_name": "Oakdale Road",
      "speed_limit": 45,
      "has_traffic_light": false,
      "traffic_control": "none"
    },
    {
      "latitude": 33.896293,
      "longitude": -84.230935,
      "street_name": "West Peachtree Street",
      "speed_limit": 35,
      "has_traffic_light": false,
      "traffic_control": "none"
    },
    {
      "latitude": 33.893569,
      "longitude": -84.239409,
      "street_name": "Duluth Highway",
      "speed_limit": 55,
      "has_traffic_light": false,
      "traffic_control": "none"
    },
    {
      "latitude": 33.890847,
      "longitude": -84.247885,
      "street_name": "Old Milton Parkway",
      "speed_limit": 45,
      "has_traffic_light": true,
      "traffic_control": "traffic_light"
    },
    {
      "latitude": 33.888122,
      "longitude": -84.25636,
      "street_name": "West Peachtree Street",
      "speed_limit": 35,
      "has_traffic_light": false,
      "traffic_control": "none"
    },
    {
      "latitude": 33.885401,
      "longitude": -84.264832,
      "street_name": "McGinnis Ferry Road",
      "speed_limit": 45,
      "has_traffic_light": false,
      "traffic_control": "none"
    },
    {
      "latitude": 33.882676,
      "longitude": -84.273307,
      "street_name": "Sugarloaf Mills Circle",
      "speed_limit": 45,
      "has_traffic_light": false,
      "traffic_control": "none"
    },
    {
      "latitude": 33.879954,
      "longitude": -84.281783,
      "street_name": "Highway 124",
      "speed_limit": 55,
      "has_traffic_light": false,
      "traffic_control": "none"
    },
    {
      "latitude": 33.87723,
      "longitude": -84.290256,
      "street_name": "Decatur Street",
      "speed_limit": 35,
      "has_traffic_light": false,
      "traffic_control": "none"
    },
    {
      "latitude": 33.874507,
      "longitude": -84.29873,
      "street_name": "14th Street",
      "speed_limit": 35,
      "has_traffic_light": false,
      "traffic_control": "none"
    },
    {
      "latitude": 33.871785,
      "longitude": -84.307204,
      "street_name": "West Paces Ferry Road",
      "speed_limit": 45,
      "has_traffic_light": false,
      "traffic_control": "none"
    },
    {
      "latitude": 33.869061,
      "longitude": -84.31568,
      "street_name": "Ponce de Leon Avenue",
      "speed_limit": 35,
      "has_traffic_light": false,
      "traffic_control": "none"
    },
    {
      "latitude": 33.866339,
      "longitude": -84.324154,
      "street_name": "16th Street",
      "speed_limit": 35,
      "has_traffic_light": false,
      "traffic_control": "none"
    },
    {
      "latitude": 33.863615,
      "longitude": -84.332628,
      "street_name": "Lilburn Stone Mountain Road",
      "speed_limit": 35,
      "has_traffic_light": false,
      "traffic_control": "none"
    },
    {
      "latitude": 33.860892,
      "longitude": -84.341104,
      "street_name": "Drew Campground Road",
      "speed_limit": 35,
      "has_traffic_light": true,
      "traffic_control": "traffic_light"
    },
    {
      "latitude": 33.85817,
      "longitude": -84.349578,
      "street_name": "Glen Iris Drive",
      "speed_limit": 35,
      "has_traffic_light": false,
      "traffic_control": "none"
    },
    {
      "latitude": 33.855446,
      "longitude": -84.358052,
      "street_name": "Austell Road",
      "speed_limit": 25,
      "has_traffic_light": false,
      "traffic_control": "none"
    },
    {
      "latitude": 33.852724,
      "longitude": -84.366527,
      "street_name": "Satellite Boulevard",
      "speed_limit": 45,
      "has_traffic_light": false,
      "traffic_control": "none"
    },
    {
      "latitude": 33.85,
      "longitude": -84.375,
      "street_name": "Destination Parking",
      "speed_limit": 15,
      "has_traffic_light": false,
      "traffic_control": "none"
    }
  ]
}