{
  "name": "david_lee_work___tech_square_to_gwinnett_place_mall",
  "description": "David Lee: Work___Tech_Square \u2192 Gwinnett_Place_Mall",
  "start_location": "33.777, -84.389",
  "end_location": "33.9432, -84.0721",
  "waypoints": [
    {
      "latitude": 33.777,
      "longitude": -84.389,
      "street_name": "Residential Driveway",
      "speed_limit": 15,
      "has_traffic_light": false,
      "traffic_control": "none"
    },
    {
      "latitude": 33.781262,
      "longitude": -84.380875,
      "street_name": "Spring Street",
      "speed_limit": 25,
      "has_traffic_light": false,
      "traffic_control": "none"
    },
    {
      "latitude": 33.785524,
      "longitude": -84.372748,
      "street_name": "Jones Bridge Road",
      "speed_limit": 25,
      "has_traffic_light": false,
      "traffic_control": "none"
    },
    {
      "latitude": 33.789785,
      "longitude": -84.364624,
      "street_name": "Drew Campground Road",
      "speed_limit": 35,
      "has_traffic_light": false,
      "traffic_control": "none"
    },
    {
      "latitude": 33.794046,
      "longitude": -84.356498,
      "street_name": "Old Peachtree Road",
      "speed_limit": 35,
      "has_traffic_light": false,
      "traffic_control": "none"
    },
    {
      "latitude": 33.798307,
      "longitude": -84.348372,
      "street_name": "North Highland Avenue",
      "speed_limit": 35,
      "has_traffic_light": true,
      "traffic_control": "traffic_light"
    },
    {
      "latitude": 33.802569,
      "longitude": -84.340246,
      "street_name": "Chamblee Tucker Road",
      "speed_limit": 35,
      "has_traffic_light": false,
      "traffic_control": "none"
    },
    {
      "latitude": 33.806831,
      "longitude": -84.33212,
      "street_name": "Spalding Drive",
      "speed_limit": 35,
      "has_traffic_light": false,
      "traffic_control": "yield"
    },
    {
      "latitude": 33.811092,
      "longitude": -84.323995,
      "street_name": "I-75 North",
      "speed_limit": 70,
      "has_traffic_light": false,
      "traffic_control": "none"
    },
    {
      "latitude": 33.815354,
      "longitude": -84.31587,
      "street_name": "McGinnis Ferry Road",
      "speed_limit": 45,
      "has_traffic_light": false,
      "traffic_control": "none"
    },
    {
      "latitude": 33.819616,
      "longitude": -84.307743,
      "street_name": "Clairmont Road",
      "speed_limit": 45,
      "has_traffic_light": false,
      "traffic_control": "none"
    },
    {
      "latitude": 33.823877,
      "longitude": -84.299618,
      "street_name": "Scott Boulevard",
      "speed_limit": 45,
      "has_traffic_light": false,
      "traffic_control": "none"
    },
    {
      "latitude": 33.828138,
      "longitude": -84.291492,
      "street_name": "Habersham Road",
      "speed_limit": 45,
      "has_traffic_light": true,
      "traffic_control": "traffic_light"
    },
    {
      "latitude": 33.8324,
      "longitude": -84.283367,
      "street_name": "McFarland Parkway",
      "speed_limit": 45,
      "has_traffic_light": false,
      "traffic_control": "none"
    },
    {
      "latitude": 33.836661,
      "longitude": -84.27524,
      "street_name": "Haynes Bridge Road",
      "speed_limit": 45,
      "has_traffic_light": false,
      "traffic_control": "none"
    },
    {
      "latitude": 33.840923,
      "longitude": -84.267115,
      "street_name": "Lenox Road",
      "speed_limit": 45,
      "has_traffic_light": false,
      "traffic_control": "none"
    },
    {
      "latitude": 33.845185,
      "longitude": -84.258989,
      "street_name": "Marietta Highway",
      "speed_limit": 55,
      "has_traffic_light": false,
      "traffic_control": "none"
    },
    {
      "latitude": 33.849446,
      "longitude": -84.250864,
      "street_name": "Circle 75 Parkway",
      "speed_limit": 45,
      "has_traffic_light": false,
      "traffic_control": "none"
    },
    {
      "latitude": 33.853707,
      "longitude": -84.242739,
      "street_name": "Clifton Road",
      "speed_limit": 45,
      "has_traffic_light": false,
      "traffic_control": "none"
    },
    {
      "latitude": 33.857969,
      "longitude": -84.234614,
      "street_name": "Buford Highway",
      "speed_limit": 55,
      "has_traffic_light": false,
      "traffic_control": "none"
    },
    {
      "latitude": 33.862231,
      "longitude": -84.226488,
      "street_name": "19th Street",
      "speed_limit": 35,
      "has_traffic_light": true,
      "traffic_control": "traffic_light"
    },
    {
      "latitude": 33.866493,
      "longitude": -84.218362,
      "street_name": "Westminster Drive",
      "speed_limit": 45,
      "has_traffic_light": false,
      "traffic_control": "none"
    },
    {
      "latitude": 33.870753,
      "longitude": -84.210237,
      "street_name": "Mansell Road",
      "speed_limit": 45,
      "has_traffic_light": false,
      "traffic_control": "none"
    },
    {
      "latitude": 33.875015,
      "longitude": -84.20211,
      "street_name": "Highway 92",
      "speed_limit": 55,
      "has_traffic_light": false,
      "traffic_control": "none"
    },
    {
      "latitude": 33.879276,
      "longitude": -84.193984,
      "street_name": "Lake Lanier Islands Parkway",
      "speed_limit": 45,
      "has_traffic_light": true,
      "traffic_control": "traffic_light"
    },
    {
      "latitude": 33.883539,
      "longitude": -84.185859,
      "street_name": "Peachtree Street NE",
      "speed_limit": 35,
      "has_traffic_light": false,
      "traffic_control": "none"
    },
    {
      "latitude": 33.8878,
      "longitude": -84.177733,
      "street_name": "Clairmont Road",
      "speed_limit": 45,
      "has_traffic_light": false,
      "traffic_control": "none"
    },
    {
      "latitude": 33.892061,
      "longitude": -84.169608,
      "street_name": "Lakeshore Drive",
      "speed_limit": 45,
      "has_traffic_light": false,
      "traffic_control": "none"
    },
    {
      "latitude": 33.896323,
      "longitude": -84.161482,
      "street_name": "Scenic Highway",
      "speed_limit": 55,
      "has_traffic_light": false,
      "traffic_control": "none"
    },
    {
      "latitude": 33.900585,
      "longitude": -84.153356,
      "street_name": "Rock Springs Road",
      "speed_limit": 45,
      "has_traffic_light": false,
      "traffic_control": "none"
    },
    {
      "latitude": 33.904847,
      "longitude": -84.145231,
      "street_name": "Post Road",
      "speed_limit": 45,
      "has_traffic_light": false,
      "traffic_control": "none"
    },
    {
      "latitude": 33.909108,
      "longitude": -84.137105,
      "street_name": "Ralph McGill Boulevard",
      "speed_limit": 45,
      "has_traffic_light": false,
      "traffic_control": "none"
    },
    {
      "latitude": 33.91337,
      "longitude": -84.12898,
      "street_name": "Decatur Street",
      "speed_limit": 35,
      "has_traffic_light": false,
      "traffic_control": "none"
    },
    {
      "latitude": 33.917632,
      "longitude": -84.120853,
      "street_name": "Northside Parkway",
      "speed_limit": 45,
      "has_traffic_light": false,
      "traffic_control": "none"
    },
    {
      "latitude": 33.921893,
      "longitude": -84.112729,
      "street_name": "Windy Hill Road",
      "speed_limit": 35,
      "has_traffic_light": false,
      "traffic_control": "none"
    },
    {
      "latitude": 33.926153,
      "longitude": -84.104602,
      "street_name": "Greenwood Avenue",
      "speed_limit": 35,
      "has_traffic_light": true,
      "traffic_control": "traffic_light"
    },
    {
      "latitude": 33.930415,
      "longitude": -84.096476,
      "street_name": "Druid Hills Road",
      "speed_limit": 35,
      "has_traffic_light": false,
      "traffic_control": "none"
    },
    {
      "latitude": 33.934678,
      "longitude": -84.088352,
      "street_name": "Decatur Street",
      "speed_limit": 25,
      "has_traffic_light": false,
      "traffic_control": "none"
    },
    {
      "latitude": 33.938939,
      "longitude": -84.080225,
      "street_name": "Monroe Circle",
      "speed_limit": 25,
      "has_traffic_light": false,
      "traffic_control": "none"
    },
    {
      "latitude": 33.9432,
      "longitude": -84.0721,
      "street_name": "Destination Parking",
      "speed_limit": 15,
      "has_traffic_light": false,
      "traffic_control": "none"
    }
  ]
}