{
  "name": "david_lee_infinite_energy_center_to_buford_highway_food",
  "description": "David Lee: Infinite_Energy_Center \u2192 Buford_Highway_Food",
  "start_location": "33.961, -84.074",
  "end_location": "33.91, -84.28",
  "waypoints": [
    {
      "latitude": 33.961,
      "longitude": -84.074,
      "street_name": "Residential Driveway",
      "speed_limit": 15,
      "has_traffic_light": false,
      "traffic_control": "none"
    },
    {
      "latitude": 33.959692,
      "longitude": -84.079282,
      "street_name": "Ponce de Leon Avenue",
      "speed_limit": 25,
      "has_traffic_light": false,
      "traffic_control": "none"
    },
    {
      "latitude": 33.958384,
      "longitude": -84.084563,
      "street_name": "Sugarloaf Mills Circle",
      "speed_limit": 25,
      "has_traffic_light": false,
      "traffic_control": "none"
    },
    {
      "latitude": 33.957076,
      "longitude": -84.089847,
      "street_name": "Highway 78",
      "speed_limit": 55,
      "has_traffic_light": false,
      "traffic_control": "none"
    },
    {
      "latitude": 33.955769,
      "longitude": -84.095128,
      "street_name": "Edgewood Avenue",
      "speed_limit": 35,
      "has_traffic_light": false,
      "traffic_control": "none"
    },
    {
      "latitude": 33.954461,
      "longitude": -84.10041,
      "street_name": "Powder Springs Road",
      "speed_limit": 35,
      "has_traffic_light": true,
      "traffic_control": "traffic_light"
    },
    {
      "latitude": 33.953154,
      "longitude": -84.105692,
      "street_name": "Freedom Parkway",
      "speed_limit": 45,
      "has_traffic_light": true,
      "traffic_control": "traffic_light"
    },
    {
      "latitude": 33.951846,
      "longitude": -84.110974,
      "street_name": "Ansley Mall",
      "speed_limit": 35,
      "has_traffic_light": false,
      "traffic_control": "yield"
    },
    {
      "latitude": 33.950539,
      "longitude": -84.116257,
      "street_name": "Juniper Street",
      "speed_limit": 35,
      "has_traffic_light": true,
      "traffic_control": "traffic_light"
    },
    {
      "latitude": 33.949232,
      "longitude": -84.121539,
      "street_name": "Juniper Street",
      "speed_limit": 35,
      "has_traffic_light": false,
      "traffic_control": "none"
    },
    {
      "latitude": 33.947924,
      "longitude": -84.126821,
      "street_name": "Peachtree Street NW",
      "speed_limit": 35,
      "has_traffic_light": false,
      "traffic_control": "none"
    },
    {
      "latitude": 33.946615,
      "longitude": -84.132103,
      "street_name": "7th Street",
      "speed_limit": 35,
      "has_traffic_light": false,
      "traffic_control": "none"
    },
    {
      "latitude": 33.945308,
      "longitude": -84.137385,
      "street_name": "Highway 85",
      "speed_limit": 55,
      "has_traffic_light": false,
      "traffic_control": "none"
    },
    {
      "latitude": 33.944001,
      "longitude": -84.142667,
      "street_name": "Emory Road",
      "speed_limit": 45,
      "has_traffic_light": false,
      "traffic_control": "none"
    },
    {
      "latitude": 33.942692,
      "longitude": -84.147948,
      "street_name": "North Decatur Road",
      "speed_limit": 45,
      "has_traffic_light": false,
      "traffic_control": "none"
    },
    {
      "latitude": 33.941385,
      "longitude": -84.153232,
      "street_name": "Club Drive",
      "speed_limit": 45,
      "has_traffic_light": false,
      "traffic_control": "none"
    },
    {
      "latitude": 33.940077,
      "longitude": -84.158513,
      "street_name": "Cobb Parkway",
      "speed_limit": 45,
      "has_traffic_light": false,
      "traffic_control": "none"
    },
    {
      "latitude": 33.93877,
      "longitude": -84.163794,
      "street_name": "Peachtree Road",
      "speed_limit": 45,
      "has_traffic_light": false,
      "traffic_control": "none"
    },
    {
      "latitude": 33.937461,
      "longitude": -84.169078,
      "street_name": "12th Street",
      "speed_limit": 35,
      "has_traffic_light": false,
      "traffic_control": "none"
    },
    {
      "latitude": 33.936153,
      "longitude": -84.174359,
      "street_name": "Moreland Avenue",
      "speed_limit": 45,
      "has_traffic_light": false,
      "traffic_control": "none"
    },
    {
      "latitude": 33.934846,
      "longitude": -84.179641,
      "street_name": "12th Street",
      "speed_limit": 35,
      "has_traffic_light": true,
      "traffic_control": "traffic_light"
    },
    {
      "latitude": 33.933539,
      "longitude": -84.184923,
      "street_name": "Freedom Parkway",
      "speed_limit": 45,
      "has_traffic_light": false,
      "traffic_control": "none"
    },
    {
      "latitude": 33.932231,
      "longitude": -84.190205,
      "street_name": "Clifton Road",
      "speed_limit": 45,
      "has_traffic_light": false,
      "traffic_control": "none"
    },
    {
      "latitude": 33.930923,
      "longitude": -84.195488,
      "street_name": "Peachtree Industrial Blvd",
      "speed_limit": 45,
      "has_traffic_light": false,
      "traffic_control": "none"
    },
    {
      "latitude": 33.929616,
      "longitude": -84.20077,
      "street_name": "Circle 75 Parkway",
      "speed_limit": 45,
      "has_traffic_light": true,
      "traffic_control": "traffic_light"
    },
    {
      "latitude": 33.928307,
      "longitude": -84.206052,
      "street_name": "Boulevard",
      "speed_limit": 45,
      "has_traffic_light": false,
      "traffic_control": "none"
    },
    {
      "latitude": 33.927,
      "longitude": -84.211333,
      "street_name": "Cypress Street",
      "speed_limit": 35,
      "has_traffic_light": false,
      "traffic_control": "none"
    },
    {
      "latitude": 33.925693,
      "longitude": -84.216616,
      "street_name": "Lindbergh Drive",
      "speed_limit": 45,
      "has_traffic_light": false,
      "traffic_control": "none"
    },
    {
      "latitude": 33.924384,
      "longitude": -84.221898,
      "street_name": "GA-400 South",
      "speed_limit": 55,
      "has_traffic_light": false,
      "traffic_control": "none"
    },
    {
      "latitude": 33.923076,
      "longitude": -84.22718,
      "street_name": "Cumming City Beach Road",
      "speed_limit": 45,
      "has_traffic_light": false,
      "traffic_control": "none"
    },
    {
      "latitude": 33.92177,
      "longitude": -84.232461,
      "street_name": "Cumming City Beach Road",
      "speed_limit": 45,
      "has_traffic_light": false,
      "traffic_control": "none"
    },
    {
      "latitude": 33.920462,
      "longitude": -84.237743,
      "street_name": "Glen Iris Drive",
      "speed_limit": 45,
      "has_traffic_light": false,
      "traffic_control": "none"
    },
    {
      "latitude": 33.919155,
      "longitude": -84.243026,
      "street_name": "Glenwood Avenue",
      "speed_limit": 35,
      "has_traffic_light": false,
      "traffic_control": "none"
    },
    {
      "latitude": 33.917846,
      "longitude": -84.248308,
      "street_name": "Mall of Georgia Boulevard",
      "speed_limit": 45,
      "has_traffic_light": false,
      "traffic_control": "none"
    },
    {
      "latitude": 33.916538,
      "longitude": -84.253589,
      "street_name": "Scenic Highway",
      "speed_limit": 55,
      "has_traffic_light": false,
      "traffic_control": "none"
    },
    {
      "latitude": 33.915231,
      "longitude": -84.258873,
      "street_name": "Windy Hill Road",
      "speed_limit": 35,
      "has_traffic_light": true,
      "traffic_control": "traffic_light"
    },
    {
      "latitude": 33.913923,
      "longitude": -84.264154,
      "street_name": "Lindbergh Drive",
      "speed_limit": 35,
      "has_traffic_light": false,
      "traffic_control": "none"
    },
    {
      "latitude": 33.912616,
      "longitude": -84.269436,
      "street_name": "Clairmont Road",
      "speed_limit": 25,
      "has_traffic_light": false,
      "traffic_control": "none"
    },
    {
      "latitude": 33.911307,
      "longitude": -84.274719,
      "street_name": "7th Street",
      "speed_limit": 25,
      "has_traffic_light": false,
      "traffic_control": "none"
    },
    {
      "latitude": 33.91,
      "longitude": -84.28,
      "street_name": "Destination Parking",
      "speed_limit": 15,
      "has_traffic_light": false,
      "traffic_control": "none"
    }
  ]
}