{
  "name": "david_anderson_wework_to_coffee_roaster",
  "description": "David Anderson: Wework \u2192 Coffee_Roaster",
  "start_location": "33.7855, -84.3835",
  "end_location": "33.7585, -84.3565",
  "waypoints": [
    {
      "latitude": 33.7855,
      "longitude": -84.3835,
      "street_name": "Parking Exit",
      "speed_limit": 15,
      "has_traffic_light": false,
      "traffic_control": "none"
    },
    {
      "latitude": 33.7835,
      "longitude": -84.3825,
      "street_name": "Crescent Avenue NE",
      "speed_limit": 25,
      "has_traffic_light": false,
      "traffic_control": "none"
    },
    {
      "latitude": 33.7808,
      "longitude": -84.3815,
      "street_name": "Peachtree Street NE",
      "speed_limit": 35,
      "has_traffic_light": true,
      "traffic_control": "traffic_light"
    },
    {
      "latitude": 33.7765,
      "longitude": -84.3795,
      "street_name": "Peachtree Street NE",
      "speed_limit": 35,
      "has_traffic_light": true,
      "traffic_control": "traffic_light"
    },
    {
      "latitude": 33.7718,
      "longitude": -84.3782,
      "street_name": "Ponce de Leon Avenue NE",
      "speed_limit": 35,
      "has_traffic_light": true,
      "traffic_control": "traffic_light"
    },
    {
      "latitude": 33.7695,
      "longitude": -84.3712,
      "street_name": "Ponce de Leon Avenue NE",
      "speed_limit": 35,
      "has_traffic_light": false,
      "traffic_control": "none"
    },
    {
      "latitude": 33.7668,
      "longitude": -84.3645,
      "street_name": "Ponce de Leon Avenue NE",
      "speed_limit": 35,
      "has_traffic_light": true,
      "traffic_control": "traffic_light"
    },
    {
      "latitude": 33.7625,
      "longitude": -84.3595,
      "street_name": "Moreland Avenue NE",
      "speed_limit": 35,
      "has_traffic_light": true,
      "traffic_control": "traffic_light"
    },
    {
      "latitude": 33.7598,
      "longitude": -84.3575,
      "street_name": "Euclid Avenue NE",
      "speed_limit": 25,
      "has_traffic_light": false,
      "traffic_control": "none"
    },
    {
      "latitude": 33.7585,
      "longitude": -84.3565,
      "street_name": "Destination Parking",
      "speed_limit": 15,
      "has_traffic_light": false,
      "traffic_control": "none"
    }
  ]
}
