{
  "name": "derek_johnson_work___hospital_to_pharmacy",
  "description": "Derek Johnson: Grady Memorial Hospital to CVS Pharmacy (Midtown)",
  "start_location": "33.748, -84.385",
  "end_location": "33.76, -84.378",
  "waypoints": [
    {
      "latitude": 33.748,
      "longitude": -84.385,
      "street_name": "Grady Memorial Hospital - Jesse Hill Jr Drive",
      "speed_limit": 15,
      "has_traffic_light": false,
      "traffic_control": "none"
    },
    {
      "latitude": 33.7495,
      "longitude": -84.3845,
      "street_name": "Jesse Hill Jr Drive SE",
      "speed_limit": 35,
      "has_traffic_light": false,
      "traffic_control": "none"
    },
    {
      "latitude": 33.7510,
      "longitude": -84.3838,
      "street_name": "Auburn Avenue NE",
      "speed_limit": 30,
      "has_traffic_light": true,
      "traffic_control": "traffic_light"
    },
    {
      "latitude": 33.7530,
      "longitude": -84.3828,
      "street_name": "Peachtree Street NE at Auburn Avenue",
      "speed_limit": 35,
      "has_traffic_light": true,
      "traffic_control": "traffic_light"
    },
    {
      "latitude": 33.7550,
      "longitude": -84.3818,
      "street_name": "Peachtree Street NE at North Avenue",
      "speed_limit": 35,
      "has_traffic_light": true,
      "traffic_control": "traffic_light"
    },
    {
      "latitude": 33.7565,
      "longitude": -84.3808,
      "street_name": "Peachtree Street NE at Ponce de Leon",
      "speed_limit": 35,
      "has_traffic_light": true,
      "traffic_control": "traffic_light"
    },
    {
      "latitude": 33.7580,
      "longitude": -84.3795,
      "street_name": "Ponce de Leon Avenue NE",
      "speed_limit": 35,
      "has_traffic_light": false,
      "traffic_control": "none"
    },
    {
      "latitude": 33.76,
      "longitude": -84.378,
      "street_name": "CVS Pharmacy - Ponce de Leon Avenue NE",
      "speed_limit": 15,
      "has_traffic_light": false,
      "traffic_control": "none"
    }
  ]
}
