{
  "name": "emily_carter_shopping_mall_to_coffee_shop",
  "description": "Emily Carter: Underground Atlanta to Coffee Shop (Sweet Auburn)",
  "start_location": "33.74, -84.375",
  "end_location": "33.752, -84.382",
  "waypoints": [
    {
      "latitude": 33.74,
      "longitude": -84.375,
      "street_name": "Underground Atlanta - Upper Alabama Street",
      "speed_limit": 15,
      "has_traffic_light": false,
      "traffic_control": "none"
    },
    {
      "latitude": 33.7415,
      "longitude": -84.3755,
      "street_name": "Pryor Street SW",
      "speed_limit": 30,
      "has_traffic_light": false,
      "traffic_control": "none"
    },
    {
      "latitude": 33.7430,
      "longitude": -84.3760,
      "street_name": "Pryor Street SW at MLK Jr Drive",
      "speed_limit": 35,
      "has_traffic_light": true,
      "traffic_control": "traffic_light"
    },
    {
      "latitude": 33.7445,
      "longitude": -84.3768,
      "street_name": "Pryor Street SW at Decatur Street",
      "speed_limit": 35,
      "has_traffic_light": true,
      "traffic_control": "traffic_light"
    },
    {
      "latitude": 33.7460,
      "longitude": -84.3775,
      "street_name": "Auburn Avenue NE",
      "speed_limit": 30,
      "has_traffic_light": false,
      "traffic_control": "none"
    },
    {
      "latitude": 33.7475,
      "longitude": -84.3785,
      "street_name": "Auburn Avenue NE at Jesse Hill Jr Drive",
      "speed_limit": 30,
      "has_traffic_light": true,
      "traffic_control": "traffic_light"
    },
    {
      "latitude": 33.7490,
      "longitude": -84.3795,
      "street_name": "Auburn Avenue NE (Sweet Auburn District)",
      "speed_limit": 30,
      "has_traffic_light": false,
      "traffic_control": "none"
    },
    {
      "latitude": 33.7505,
      "longitude": -84.3808,
      "street_name": "Edgewood Avenue NE",
      "speed_limit": 30,
      "has_traffic_light": true,
      "traffic_control": "traffic_light"
    },
    {
      "latitude": 33.752,
      "longitude": -84.382,
      "street_name": "Coffee Shop - Edgewood Avenue NE",
      "speed_limit": 15,
      "has_traffic_light": false,
      "traffic_control": "none"
    }
  ]
}
