{
  "name": "james_rodriguez_base_to_work___bank_buckhead",
  "description": "James Rodriguez: Base \u2192 Work___Bank_Buckhead",
  "start_location": "34.0754, -84.2941",
  "end_location": "33.8484, -84.3682",
  "waypoints": [
    {
      "latitude": 34.0754,
      "longitude": -84.2941,
      "street_name": "Residential Driveway",
      "speed_limit": 15,
      "has_traffic_light": false,
      "traffic_control": "none"
    },
    {
      "latitude": 34.0738,
      "longitude": -84.2955,
      "street_name": "Devore Road",
      "speed_limit": 25,
      "has_traffic_light": false,
      "traffic_control": "none"
    },
    {
      "latitude": 34.0721,
      "longitude": -84.2968,
      "street_name": "Old Milton Parkway",
      "speed_limit": 45,
      "has_traffic_light": true,
      "traffic_control": "traffic_light"
    },
    {
      "latitude": 34.0685,
      "longitude": -84.3012,
      "street_name": "GA-400 South On-Ramp",
      "speed_limit": 45,
      "has_traffic_light": false,
      "traffic_control": "none"
    },
    {
      "latitude": 34.0542,
      "longitude": -84.3095,
      "street_name": "GA-400 South",
      "speed_limit": 65,
      "has_traffic_light": false,
      "traffic_control": "none"
    },
    {
      "latitude": 34.0285,
      "longitude": -84.3248,
      "street_name": "GA-400 South",
      "speed_limit": 65,
      "has_traffic_light": false,
      "traffic_control": "none"
    },
    {
      "latitude": 33.9985,
      "longitude": -84.3398,
      "street_name": "GA-400 South",
      "speed_limit": 65,
      "has_traffic_light": false,
      "traffic_control": "none"
    },
    {
      "latitude": 33.9652,
      "longitude": -84.3512,
      "street_name": "GA-400 South",
      "speed_limit": 65,
      "has_traffic_light": false,
      "traffic_control": "none"
    },
    {
      "latitude": 33.9358,
      "longitude": -84.3585,
      "street_name": "GA-400 South",
      "speed_limit": 65,
      "has_traffic_light": false,
      "traffic_control": "none"
    },
    {
      "latitude": 33.9125,
      "longitude": -84.3612,
      "street_name": "GA-400 South",
      "speed_limit": 65,
      "has_traffic_light": false,
      "traffic_control": "none"
    },
    {
      "latitude": 33.8892,
      "longitude": -84.3625,
      "street_name": "GA-400 South",
      "speed_limit": 65,
      "has_traffic_light": false,
      "traffic_control": "none"
    },
    {
      "latitude": 33.8685,
      "longitude": -84.3642,
      "street_name": "Lenox Road Exit",
      "speed_limit": 45,
      "has_traffic_light": false,
      "traffic_control": "none"
    },
    {
      "latitude": 33.8612,
      "longitude": -84.3658,
      "street_name": "Lenox Road NE",
      "speed_limit": 35,
      "has_traffic_light": true,
      "traffic_control": "traffic_light"
    },
    {
      "latitude": 33.8558,
      "longitude": -84.3672,
      "street_name": "Peachtree Road NE",
      "speed_limit": 35,
      "has_traffic_light": true,
      "traffic_control": "traffic_light"
    },
    {
      "latitude": 33.8512,
      "longitude": -84.3678,
      "street_name": "Piedmont Road NE",
      "speed_limit": 35,
      "has_traffic_light": false,
      "traffic_control": "none"
    },
    {
      "latitude": 33.8484,
      "longitude": -84.3682,
      "street_name": "Destination Parking",
      "speed_limit": 15,
      "has_traffic_light": false,
      "traffic_control": "none"
    }
  ]
}
