{
  "name": "jason_patel_northlake_mall_area_to_base",
  "description": "Jason Patel: Northlake_Mall_Area \u2192 Base",
  "start_location": "33.848, -84.245",
  "end_location": "33.8121, -84.1694",
  "waypoints": [
    {
      "latitude": 33.848,
      "longitude": -84.245,
      "street_name": "Residential Driveway",
      "speed_limit": 15,
      "has_traffic_light": false,
      "traffic_control": "none"
    },
    {
      "latitude": 33.847079,
      "longitude": -84.243062,
      "street_name": "Virginia Avenue",
      "speed_limit": 25,
      "has_traffic_light": false,
      "traffic_control": "none"
    },
    {
      "latitude": 33.846159,
      "longitude": -84.241124,
      "street_name": "Chamblee Tucker Road",
      "speed_limit": 25,
      "has_traffic_light": false,
      "traffic_control": "none"
    },
    {
      "latitude": 33.845238,
      "longitude": -84.239186,
      "street_name": "Bethelview Road",
      "speed_limit": 35,
      "has_traffic_light": false,
      "traffic_control": "none"
    },
    {
      "latitude": 33.844318,
      "longitude": -84.237247,
      "street_name": "Ansley Mall",
      "speed_limit": 35,
      "has_traffic_light": false,
      "traffic_control": "none"
    },
    {
      "latitude": 33.843396,
      "longitude": -84.235307,
      "street_name": "Freedom Parkway",
      "speed_limit": 45,
      "has_traffic_light": false,
      "traffic_control": "none"
    },
    {
      "latitude": 33.842477,
      "longitude": -84.233368,
      "street_name": "11th Street",
      "speed_limit": 35,
      "has_traffic_light": false,
      "traffic_control": "none"
    },
    {
      "latitude": 33.841556,
      "longitude": -84.23143,
      "street_name": "I-20 East",
      "speed_limit": 70,
      "has_traffic_light": false,
      "traffic_control": "none"
    },
    {
      "latitude": 33.840637,
      "longitude": -84.229492,
      "street_name": "Spot Road",
      "speed_limit": 45,
      "has_traffic_light": true,
      "traffic_control": "traffic_light"
    },
    {
      "latitude": 33.839715,
      "longitude": -84.227554,
      "street_name": "McFarland Parkway",
      "speed_limit": 45,
      "has_traffic_light": false,
      "traffic_control": "none"
    },
    {
      "latitude": 33.838795,
      "longitude": -84.225616,
      "street_name": "Sawnee Avenue",
      "speed_limit": 45,
      "has_traffic_light": false,
      "traffic_control": "none"
    },
    {
      "latitude": 33.837875,
      "longitude": -84.223677,
      "street_name": "GA-400 South",
      "speed_limit": 55,
      "has_traffic_light": false,
      "traffic_control": "none"
    },
    {
      "latitude": 33.836955,
      "longitude": -84.221739,
      "street_name": "Haynes Bridge Road",
      "speed_limit": 45,
      "has_traffic_light": true,
      "traffic_control": "traffic_light"
    },
    {
      "latitude": 33.836033,
      "longitude": -84.2198,
      "street_name": "Valley Road",
      "speed_limit": 45,
      "has_traffic_light": false,
      "traffic_control": "none"
    },
    {
      "latitude": 33.835113,
      "longitude": -84.217861,
      "street_name": "Peachtree Street NE",
      "speed_limit": 35,
      "has_traffic_light": false,
      "traffic_control": "none"
    },
    {
      "latitude": 33.834193,
      "longitude": -84.215924,
      "street_name": "Cumming City Beach Road",
      "speed_limit": 45,
      "has_traffic_light": false,
      "traffic_control": "none"
    },
    {
      "latitude": 33.833272,
      "longitude": -84.213985,
      "street_name": "Lenox Road",
      "speed_limit": 45,
      "has_traffic_light": true,
      "traffic_control": "traffic_light"
    },
    {
      "latitude": 33.832351,
      "longitude": -84.212047,
      "street_name": "Satellite Boulevard",
      "speed_limit": 45,
      "has_traffic_light": false,
      "traffic_control": "none"
    },
    {
      "latitude": 33.831431,
      "longitude": -84.210108,
      "street_name": "19th Street",
      "speed_limit": 35,
      "has_traffic_light": false,
      "traffic_control": "none"
    },
    {
      "latitude": 33.830511,
      "longitude": -84.208169,
      "street_name": "Beaver Ruin Road",
      "speed_limit": 45,
      "has_traffic_light": false,
      "traffic_control": "none"
    },
    {
      "latitude": 33.829589,
      "longitude": -84.206231,
      "street_name": "Circle 75 Parkway",
      "speed_limit": 45,
      "has_traffic_light": false,
      "traffic_control": "none"
    },
    {
      "latitude": 33.828669,
      "longitude": -84.204291,
      "street_name": "Henderson Mill Road",
      "speed_limit": 45,
      "has_traffic_light": false,
      "traffic_control": "none"
    },
    {
      "latitude": 33.827748,
      "longitude": -84.202354,
      "street_name": "Lake Lanier Islands Parkway",
      "speed_limit": 45,
      "has_traffic_light": false,
      "traffic_control": "none"
    },
    {
      "latitude": 33.826827,
      "longitude": -84.200415,
      "street_name": "Highway 9 (Roswell Road)",
      "speed_limit": 55,
      "has_traffic_light": false,
      "traffic_control": "none"
    },
    {
      "latitude": 33.825908,
      "longitude": -84.198477,
      "street_name": "Jones Bridge Road",
      "speed_limit": 45,
      "has_traffic_light": true,
      "traffic_control": "traffic_light"
    },
    {
      "latitude": 33.824987,
      "longitude": -84.196538,
      "street_name": "Highway 138",
      "speed_limit": 55,
      "has_traffic_light": false,
      "traffic_control": "none"
    },
    {
      "latitude": 33.824066,
      "longitude": -84.1946,
      "street_name": "Mansell Road",
      "speed_limit": 45,
      "has_traffic_light": false,
      "traffic_control": "none"
    },
    {
      "latitude": 33.823146,
      "longitude": -84.192661,
      "street_name": "I-575 North",
      "speed_limit": 70,
      "has_traffic_light": false,
      "traffic_control": "none"
    },
    {
      "latitude": 33.822226,
      "longitude": -84.190723,
      "street_name": "Valley Road",
      "speed_limit": 45,
      "has_traffic_light": true,
      "traffic_control": "traffic_light"
    },
    {
      "latitude": 33.821305,
      "longitude": -84.188786,
      "street_name": "Spring Street",
      "speed_limit": 35,
      "has_traffic_light": false,
      "traffic_control": "none"
    },
    {
      "latitude": 33.820386,
      "longitude": -84.186845,
      "street_name": "McGinnis Ferry Road",
      "speed_limit": 45,
      "has_traffic_light": false,
      "traffic_control": "none"
    },
    {
      "latitude": 33.819464,
      "longitude": -84.184908,
      "street_name": "Perimeter Center West",
      "speed_limit": 45,
      "has_traffic_light": false,
      "traffic_control": "none"
    },
    {
      "latitude": 33.818543,
      "longitude": -84.182969,
      "street_name": "North Highland Avenue",
      "speed_limit": 35,
      "has_traffic_light": false,
      "traffic_control": "none"
    },
    {
      "latitude": 33.817623,
      "longitude": -84.181031,
      "street_name": "Lake Lanier Islands Parkway",
      "speed_limit": 45,
      "has_traffic_light": false,
      "traffic_control": "none"
    },
    {
      "latitude": 33.816702,
      "longitude": -84.179092,
      "street_name": "Indian Trail Road",
      "speed_limit": 35,
      "has_traffic_light": false,
      "traffic_control": "none"
    },
    {
      "latitude": 33.815781,
      "longitude": -84.177155,
      "street_name": "Club Drive",
      "speed_limit": 35,
      "has_traffic_light": true,
      "traffic_control": "traffic_light"
    },
    {
      "latitude": 33.814861,
      "longitude": -84.175216,
      "street_name": "Peachtree Dunwoody Road",
      "speed_limit": 35,
      "has_traffic_light": false,
      "traffic_control": "none"
    },
    {
      "latitude": 33.813941,
      "longitude": -84.173277,
      "street_name": "Moreland Avenue",
      "speed_limit": 25,
      "has_traffic_light": false,
      "traffic_control": "none"
    },
    {
      "latitude": 33.81302,
      "longitude": -84.171338,
      "street_name": "Highway 141 (Peachtree Rd)",
      "speed_limit": 55,
      "has_traffic_light": false,
      "traffic_control": "none"
    },
    {
      "latitude": 33.8121,
      "longitude": -84.1694,
      "street_name": "Destination Parking",
      "speed_limit": 15,
      "has_traffic_light": false,
      "traffic_control": "none"
    }
  ]
}