{
  "name": "jessica_thompson_kennesaw_state_university_to_kennesaw_mountain",
  "description": "Jessica Thompson: Kennesaw_State_University \u2192 Kennesaw_Mountain",
  "start_location": "34.0379, -84.5814",
  "end_location": "33.983, -84.578",
  "waypoints": [
    {
      "latitude": 34.0379,
      "longitude": -84.5814,
      "street_name": "Residential Driveway",
      "speed_limit": 15,
      "has_traffic_light": false,
      "traffic_control": "none"
    },
    {
      "latitude": 34.036493,
      "longitude": -84.581313,
      "street_name": "Dallas Highway",
      "speed_limit": 55,
      "has_traffic_light": false,
      "traffic_control": "none"
    },
    {
      "latitude": 34.035085,
      "longitude": -84.581226,
      "street_name": "9th Street",
      "speed_limit": 25,
      "has_traffic_light": false,
      "traffic_control": "none"
    },
    {
      "latitude": 34.033677,
      "longitude": -84.581138,
      "street_name": "Rockbridge Road",
      "speed_limit": 35,
      "has_traffic_light": false,
      "traffic_control": "none"
    },
    {
      "latitude": 34.032269,
      "longitude": -84.581051,
      "street_name": "Perimeter Center West",
      "speed_limit": 35,
      "has_traffic_light": false,
      "traffic_control": "none"
    },
    {
      "latitude": 34.030862,
      "longitude": -84.580964,
      "street_name": "Highway 9 (Roswell Road)",
      "speed_limit": 55,
      "has_traffic_light": false,
      "traffic_control": "none"
    },
    {
      "latitude": 34.029454,
      "longitude": -84.580876,
      "street_name": "Abbotts Bridge Road",
      "speed_limit": 35,
      "has_traffic_light": false,
      "traffic_control": "none"
    },
    {
      "latitude": 34.028046,
      "longitude": -84.58079,
      "street_name": "Pine Street",
      "speed_limit": 35,
      "has_traffic_light": false,
      "traffic_control": "yield"
    },
    {
      "latitude": 34.026637,
      "longitude": -84.580702,
      "street_name": "Highway 78",
      "speed_limit": 55,
      "has_traffic_light": false,
      "traffic_control": "none"
    },
    {
      "latitude": 34.025232,
      "longitude": -84.580615,
      "street_name": "12th Street",
      "speed_limit": 35,
      "has_traffic_light": false,
      "traffic_control": "none"
    },
    {
      "latitude": 34.023822,
      "longitude": -84.580529,
      "street_name": "19th Street",
      "speed_limit": 35,
      "has_traffic_light": false,
      "traffic_control": "none"
    },
    {
      "latitude": 34.022416,
      "longitude": -84.580441,
      "street_name": "LaVista Road",
      "speed_limit": 45,
      "has_traffic_light": false,
      "traffic_control": "none"
    },
    {
      "latitude": 34.021008,
      "longitude": -84.580354,
      "street_name": "North Decatur Road",
      "speed_limit": 45,
      "has_traffic_light": true,
      "traffic_control": "traffic_light"
    },
    {
      "latitude": 34.019601,
      "longitude": -84.580266,
      "street_name": "Beverly Road",
      "speed_limit": 45,
      "has_traffic_light": false,
      "traffic_control": "none"
    },
    {
      "latitude": 34.018193,
      "longitude": -84.580179,
      "street_name": "Town Center Boulevard",
      "speed_limit": 45,
      "has_traffic_light": false,
      "traffic_control": "none"
    },
    {
      "latitude": 34.016784,
      "longitude": -84.580093,
      "street_name": "Friendship Road",
      "speed_limit": 45,
      "has_traffic_light": false,
      "traffic_control": "none"
    },
    {
      "latitude": 34.015376,
      "longitude": -84.580006,
      "street_name": "Spring Street",
      "speed_limit": 35,
      "has_traffic_light": true,
      "traffic_control": "traffic_light"
    },
    {
      "latitude": 34.013969,
      "longitude": -84.579918,
      "street_name": "Bethelview Road",
      "speed_limit": 45,
      "has_traffic_light": false,
      "traffic_control": "none"
    },
    {
      "latitude": 34.012562,
      "longitude": -84.57983,
      "street_name": "Clairmont Road",
      "speed_limit": 45,
      "has_traffic_light": false,
      "traffic_control": "none"
    },
    {
      "latitude": 34.011153,
      "longitude": -84.579743,
      "street_name": "Piedmont Avenue",
      "speed_limit": 45,
      "has_traffic_light": false,
      "traffic_control": "none"
    },
    {
      "latitude": 34.009747,
      "longitude": -84.579657,
      "street_name": "Greenwood Avenue",
      "speed_limit": 45,
      "has_traffic_light": true,
      "traffic_control": "traffic_light"
    },
    {
      "latitude": 34.008338,
      "longitude": -84.579569,
      "street_name": "Browns Bridge Road",
      "speed_limit": 45,
      "has_traffic_light": false,
      "traffic_control": "none"
    },
    {
      "latitude": 34.006932,
      "longitude": -84.579483,
      "street_name": "Highway 316",
      "speed_limit": 55,
      "has_traffic_light": false,
      "traffic_control": "none"
    },
    {
      "latitude": 34.005523,
      "longitude": -84.579395,
      "street_name": "West Peachtree Street",
      "speed_limit": 35,
      "has_traffic_light": false,
      "traffic_control": "none"
    },
    {
      "latitude": 34.004116,
      "longitude": -84.579308,
      "street_name": "McFarland Parkway",
      "speed_limit": 45,
      "has_traffic_light": true,
      "traffic_control": "traffic_light"
    },
    {
      "latitude": 34.002708,
      "longitude": -84.579221,
      "street_name": "Glenwood Avenue",
      "speed_limit": 45,
      "has_traffic_light": false,
      "traffic_control": "none"
    },
    {
      "latitude": 34.0013,
      "longitude": -84.579134,
      "street_name": "Freedom Parkway",
      "speed_limit": 45,
      "has_traffic_light": false,
      "traffic_control": "none"
    },
    {
      "latitude": 33.999892,
      "longitude": -84.579046,
      "street_name": "Pilgrim Mill Road",
      "speed_limit": 45,
      "has_traffic_light": false,
      "traffic_control": "none"
    },
    {
      "latitude": 33.998485,
      "longitude": -84.578959,
      "street_name": "LaVista Road",
      "speed_limit": 45,
      "has_traffic_light": true,
      "traffic_control": "traffic_light"
    },
    {
      "latitude": 33.997077,
      "longitude": -84.578871,
      "street_name": "Penn Avenue",
      "speed_limit": 45,
      "has_traffic_light": false,
      "traffic_control": "none"
    },
    {
      "latitude": 33.99567,
      "longitude": -84.578784,
      "street_name": "Cobb Parkway",
      "speed_limit": 45,
      "has_traffic_light": true,
      "traffic_control": "traffic_light"
    },
    {
      "latitude": 33.994262,
      "longitude": -84.578697,
      "street_name": "I-85 South",
      "speed_limit": 70,
      "has_traffic_light": false,
      "traffic_control": "none"
    },
    {
      "latitude": 33.992854,
      "longitude": -84.57861,
      "street_name": "Mansell Road",
      "speed_limit": 35,
      "has_traffic_light": false,
      "traffic_control": "none"
    },
    {
      "latitude": 33.991445,
      "longitude": -84.578524,
      "street_name": "DeKalb Avenue",
      "speed_limit": 35,
      "has_traffic_light": false,
      "traffic_control": "none"
    },
    {
      "latitude": 33.990038,
      "longitude": -84.578436,
      "street_name": "Penn Avenue",
      "speed_limit": 35,
      "has_traffic_light": false,
      "traffic_control": "none"
    },
    {
      "latitude": 33.988632,
      "longitude": -84.578348,
      "street_name": "Sugarloaf Parkway",
      "speed_limit": 45,
      "has_traffic_light": false,
      "traffic_control": "none"
    },
    {
      "latitude": 33.987223,
      "longitude": -84.578261,
      "street_name": "Ralph McGill Boulevard",
      "speed_limit": 45,
      "has_traffic_light": true,
      "traffic_control": "traffic_light"
    },
    {
      "latitude": 33.985816,
      "longitude": -84.578174,
      "street_name": "Roswell Road",
      "speed_limit": 25,
      "has_traffic_light": false,
      "traffic_control": "none"
    },
    {
      "latitude": 33.984407,
      "longitude": -84.578088,
      "street_name": "Ponce de Leon Avenue",
      "speed_limit": 25,
      "has_traffic_light": false,
      "traffic_control": "none"
    },
    {
      "latitude": 33.983,
      "longitude": -84.578,
      "street_name": "Destination Parking",
      "speed_limit": 15,
      "has_traffic_light": false,
      "traffic_control": "none"
    }
  ]
}