{
  "name": "kevin_miller_game_store_to_pizza_place",
  "description": "Kevin Miller: Game_Store \u2192 Pizza_Place",
  "start_location": "33.76, -84.384",
  "end_location": "33.764, -84.38",
  "waypoints": [
    {
      "latitude": 33.76,
      "longitude": -84.384,
      "street_name": "Parking Exit",
      "speed_limit": 15,
      "has_traffic_light": false,
      "traffic_control": "none"
    },
    {
      "latitude": 33.7610,
      "longitude": -84.3835,
      "street_name": "10th Street NW",
      "speed_limit": 35,
      "has_traffic_light": false,
      "traffic_control": "none"
    },
    {
      "latitude": 33.7620,
      "longitude": -84.3825,
      "street_name": "Piedmont Avenue NE",
      "speed_limit": 35,
      "has_traffic_light": true,
      "traffic_control": "traffic_light"
    },
    {
      "latitude": 33.7630,
      "longitude": -84.3810,
      "street_name": "Monroe Drive NE",
      "speed_limit": 35,
      "has_traffic_light": true,
      "traffic_control": "traffic_light"
    },
    {
      "latitude": 33.764,
      "longitude": -84.38,
      "street_name": "Destination Parking",
      "speed_limit": 15,
      "has_traffic_light": false,
      "traffic_control": "none"
    }
  ]
}
