{
  "name": "kevin_miller_base_to_work___it_company",
  "description": "Kevin Miller: Base \u2192 Work___It_Company",
  "start_location": "33.762, -84.382",
  "end_location": "33.757, -84.387",
  "waypoints": [
    {
      "latitude": 33.762,
      "longitude": -84.382,
      "street_name": "Residential Driveway",
      "speed_limit": 15,
      "has_traffic_light": false,
      "traffic_control": "none"
    },
    {
      "latitude": 33.7610,
      "longitude": -84.3830,
      "street_name": "Peachtree Street NE",
      "speed_limit": 35,
      "has_traffic_light": false,
      "traffic_control": "none"
    },
    {
      "latitude": 33.7600,
      "longitude": -84.3845,
      "street_name": "North Avenue NW",
      "speed_limit": 35,
      "has_traffic_light": true,
      "traffic_control": "traffic_light"
    },
    {
      "latitude": 33.7590,
      "longitude": -84.3855,
      "street_name": "West Peachtree Street NW",
      "speed_limit": 35,
      "has_traffic_light": true,
      "traffic_control": "traffic_light"
    },
    {
      "latitude": 33.7580,
      "longitude": -84.3865,
      "street_name": "Spring Street NW",
      "speed_limit": 35,
      "has_traffic_light": true,
      "traffic_control": "traffic_light"
    },
    {
      "latitude": 33.757,
      "longitude": -84.387,
      "street_name": "Destination Parking",
      "speed_limit": 15,
      "has_traffic_light": false,
      "traffic_control": "none"
    }
  ]
}
