{
  "name": "lauren_brown_oglethorpe_university_to_base",
  "description": "Lauren Brown: Oglethorpe_University \u2192 Base",
  "start_location": "33.8693, -84.3328",
  "end_location": "33.8651, -84.3393",
  "waypoints": [
    {
      "latitude": 33.8693,
      "longitude": -84.3328,
      "street_name": "Residential Driveway",
      "speed_limit": 15,
      "has_traffic_light": false,
      "traffic_control": "none"
    },
    {
      "latitude": 33.869,
      "longitude": -84.333263,
      "street_name": "I-985 North",
      "speed_limit": 70,
      "has_traffic_light": false,
      "traffic_control": "none"
    },
    {
      "latitude": 33.8687,
      "longitude": -84.333729,
      "street_name": "Habersham Road",
      "speed_limit": 25,
      "has_traffic_light": false,
      "traffic_control": "none"
    },
    {
      "latitude": 33.8684,
      "longitude": -84.334192,
      "street_name": "14th Street",
      "speed_limit": 35,
      "has_traffic_light": false,
      "traffic_control": "none"
    },
    {
      "latitude": 33.868101,
      "longitude": -84.334658,
      "street_name": "Piedmont Avenue",
      "speed_limit": 45,
      "has_traffic_light": true,
      "traffic_control": "traffic_light"
    },
    {
      "latitude": 33.8678,
      "longitude": -84.335122,
      "street_name": "Indian Trail Road",
      "speed_limit": 45,
      "has_traffic_light": false,
      "traffic_control": "none"
    },
    {
      "latitude": 33.8675,
      "longitude": -84.335586,
      "street_name": "Lenox Road",
      "speed_limit": 45,
      "has_traffic_light": false,
      "traffic_control": "none"
    },
    {
      "latitude": 33.867201,
      "longitude": -84.336049,
      "street_name": "Clairmont Road",
      "speed_limit": 45,
      "has_traffic_light": false,
      "traffic_control": "none"
    },
    {
      "latitude": 33.866899,
      "longitude": -84.336514,
      "street_name": "LaVista Road",
      "speed_limit": 45,
      "has_traffic_light": true,
      "traffic_control": "traffic_light"
    },
    {
      "latitude": 33.8666,
      "longitude": -84.336978,
      "street_name": "Peachtree Battle Avenue",
      "speed_limit": 45,
      "has_traffic_light": false,
      "traffic_control": "none"
    },
    {
      "latitude": 33.866299,
      "longitude": -84.337442,
      "street_name": "Freedom Parkway",
      "speed_limit": 45,
      "has_traffic_light": false,
      "traffic_control": "none"
    },
    {
      "latitude": 33.865999,
      "longitude": -84.337907,
      "street_name": "Spalding Drive",
      "speed_limit": 45,
      "has_traffic_light": false,
      "traffic_control": "none"
    },
    {
      "latitude": 33.865701,
      "longitude": -84.338372,
      "street_name": "Spot Road",
      "speed_limit": 25,
      "has_traffic_light": false,
      "traffic_control": "stop_sign"
    },
    {
      "latitude": 33.865399,
      "longitude": -84.338836,
      "street_name": "Lenox Road",
      "speed_limit": 25,
      "has_traffic_light": false,
      "traffic_control": "none"
    },
    {
      "latitude": 33.8651,
      "longitude": -84.3393,
      "street_name": "Destination Parking",
      "speed_limit": 15,
      "has_traffic_light": false,
      "traffic_control": "none"
    }
  ]
}