{
  "name": "lauren_brown_work___midtown_to_town_brookhaven",
  "description": "Lauren Brown: Work___Midtown \u2192 Town_Brookhaven",
  "start_location": "33.784, -84.387",
  "end_location": "33.8636, -84.3383",
  "waypoints": [
    {
      "latitude": 33.784,
      "longitude": -84.387,
      "street_name": "Residential Driveway",
      "speed_limit": 15,
      "has_traffic_light": false,
      "traffic_control": "none"
    },
    {
      "latitude": 33.786041,
      "longitude": -84.385752,
      "street_name": "Peachtree Battle Avenue",
      "speed_limit": 25,
      "has_traffic_light": false,
      "traffic_control": "none"
    },
    {
      "latitude": 33.788082,
      "longitude": -84.384502,
      "street_name": "Candler Road",
      "speed_limit": 25,
      "has_traffic_light": false,
      "traffic_control": "none"
    },
    {
      "latitude": 33.790124,
      "longitude": -84.383254,
      "street_name": "Monroe Circle",
      "speed_limit": 35,
      "has_traffic_light": false,
      "traffic_control": "none"
    },
    {
      "latitude": 33.792164,
      "longitude": -84.382005,
      "street_name": "Highway 316",
      "speed_limit": 55,
      "has_traffic_light": false,
      "traffic_control": "none"
    },
    {
      "latitude": 33.794206,
      "longitude": -84.380757,
      "street_name": "Highway 9 (Roswell Road)",
      "speed_limit": 55,
      "has_traffic_light": false,
      "traffic_control": "none"
    },
    {
      "latitude": 33.796247,
      "longitude": -84.379507,
      "street_name": "8th Street",
      "speed_limit": 35,
      "has_traffic_light": false,
      "traffic_control": "none"
    },
    {
      "latitude": 33.798288,
      "longitude": -84.378259,
      "street_name": "Northside Parkway",
      "speed_limit": 45,
      "has_traffic_light": false,
      "traffic_control": "none"
    },
    {
      "latitude": 33.800329,
      "longitude": -84.37701,
      "street_name": "Peachtree Dunwoody Road",
      "speed_limit": 45,
      "has_traffic_light": true,
      "traffic_control": "traffic_light"
    },
    {
      "latitude": 33.80237,
      "longitude": -84.375761,
      "street_name": "Pine Street",
      "speed_limit": 35,
      "has_traffic_light": false,
      "traffic_control": "none"
    },
    {
      "latitude": 33.80441,
      "longitude": -84.374513,
      "street_name": "Cumberland Parkway",
      "speed_limit": 45,
      "has_traffic_light": false,
      "traffic_control": "none"
    },
    {
      "latitude": 33.806452,
      "longitude": -84.373264,
      "street_name": "Beverly Road",
      "speed_limit": 45,
      "has_traffic_light": false,
      "traffic_control": "none"
    },
    {
      "latitude": 33.808492,
      "longitude": -84.372016,
      "street_name": "Aqualand Drive",
      "speed_limit": 45,
      "has_traffic_light": true,
      "traffic_control": "traffic_light"
    },
    {
      "latitude": 33.810534,
      "longitude": -84.370767,
      "street_name": "Ralph McGill Boulevard",
      "speed_limit": 45,
      "has_traffic_light": false,
      "traffic_control": "none"
    },
    {
      "latitude": 33.812575,
      "longitude": -84.369517,
      "street_name": "Highway 141 (Peachtree Rd)",
      "speed_limit": 55,
      "has_traffic_light": false,
      "traffic_control": "none"
    },
    {
      "latitude": 33.814615,
      "longitude": -84.368269,
      "street_name": "Beverly Road",
      "speed_limit": 45,
      "has_traffic_light": false,
      "traffic_control": "none"
    },
    {
      "latitude": 33.816656,
      "longitude": -84.36702,
      "street_name": "Highway 124",
      "speed_limit": 55,
      "has_traffic_light": false,
      "traffic_control": "none"
    },
    {
      "latitude": 33.818697,
      "longitude": -84.365771,
      "street_name": "17th Street",
      "speed_limit": 35,
      "has_traffic_light": false,
      "traffic_control": "none"
    },
    {
      "latitude": 33.820739,
      "longitude": -84.364524,
      "street_name": "Johnson Ferry Road",
      "speed_limit": 45,
      "has_traffic_light": false,
      "traffic_control": "none"
    },
    {
      "latitude": 33.82278,
      "longitude": -84.363274,
      "street_name": "Clifton Road",
      "speed_limit": 45,
      "has_traffic_light": false,
      "traffic_control": "none"
    },
    {
      "latitude": 33.82482,
      "longitude": -84.362027,
      "street_name": "Stone Mountain Highway",
      "speed_limit": 55,
      "has_traffic_light": false,
      "traffic_control": "none"
    },
    {
      "latitude": 33.826862,
      "longitude": -84.360777,
      "street_name": "8th Street",
      "speed_limit": 35,
      "has_traffic_light": false,
      "traffic_control": "none"
    },
    {
      "latitude": 33.828903,
      "longitude": -84.359528,
      "street_name": "Johnson Ferry Road",
      "speed_limit": 45,
      "has_traffic_light": false,
      "traffic_control": "none"
    },
    {
      "latitude": 33.830944,
      "longitude": -84.358279,
      "street_name": "Powder Springs Road",
      "speed_limit": 45,
      "has_traffic_light": false,
      "traffic_control": "none"
    },
    {
      "latitude": 33.832985,
      "longitude": -84.35703,
      "street_name": "Keith Bridge Road",
      "speed_limit": 45,
      "has_traffic_light": true,
      "traffic_control": "traffic_light"
    },
    {
      "latitude": 33.835026,
      "longitude": -84.355783,
      "street_name": "I-75 North",
      "speed_limit": 70,
      "has_traffic_light": false,
      "traffic_control": "none"
    },
    {
      "latitude": 33.837067,
      "longitude": -84.354533,
      "street_name": "Juniper Street",
      "speed_limit": 35,
      "has_traffic_light": false,
      "traffic_control": "none"
    },
    {
      "latitude": 33.839108,
      "longitude": -84.353284,
      "street_name": "Scenic Highway",
      "speed_limit": 55,
      "has_traffic_light": false,
      "traffic_control": "none"
    },
    {
      "latitude": 33.841149,
      "longitude": -84.352036,
      "street_name": "Westminster Drive",
      "speed_limit": 45,
      "has_traffic_light": true,
      "traffic_control": "traffic_light"
    },
    {
      "latitude": 33.84319,
      "longitude": -84.350787,
      "street_name": "8th Street",
      "speed_limit": 35,
      "has_traffic_light": false,
      "traffic_control": "none"
    },
    {
      "latitude": 33.84523,
      "longitude": -84.349539,
      "street_name": "Spalding Drive",
      "speed_limit": 45,
      "has_traffic_light": false,
      "traffic_control": "none"
    },
    {
      "latitude": 33.847272,
      "longitude": -84.348289,
      "street_name": "I-85 South",
      "speed_limit": 70,
      "has_traffic_light": false,
      "traffic_control": "none"
    },
    {
      "latitude": 33.849312,
      "longitude": -84.347041,
      "street_name": "Scott Boulevard",
      "speed_limit": 45,
      "has_traffic_light": false,
      "traffic_control": "none"
    },
    {
      "latitude": 33.851353,
      "longitude": -84.345793,
      "street_name": "Sawnee Avenue",
      "speed_limit": 35,
      "has_traffic_light": false,
      "traffic_control": "none"
    },
    {
      "latitude": 33.853394,
      "longitude": -84.344543,
      "street_name": "Clairmont Road",
      "speed_limit": 35,
      "has_traffic_light": false,
      "traffic_control": "none"
    },
    {
      "latitude": 33.855436,
      "longitude": -84.343295,
      "street_name": "I-20 East",
      "speed_limit": 70,
      "has_traffic_light": false,
      "traffic_control": "none"
    },
    {
      "latitude": 33.857478,
      "longitude": -84.342047,
      "street_name": "Arden Road",
      "speed_limit": 35,
      "has_traffic_light": false,
      "traffic_control": "none"
    },
    {
      "latitude": 33.859519,
      "longitude": -84.340798,
      "street_name": "Cumberland Parkway",
      "speed_limit": 45,
      "has_traffic_light": false,
      "traffic_control": "none"
    },
    {
      "latitude": 33.861558,
      "longitude": -84.339548,
      "street_name": "Satellite Boulevard",
      "speed_limit": 45,
      "has_traffic_light": false,
      "traffic_control": "none"
    },
    {
      "latitude": 33.8636,
      "longitude": -84.3383,
      "street_name": "Destination Parking",
      "speed_limit": 15,
      "has_traffic_light": false,
      "traffic_control": "none"
    }
  ]
}