{
  "name": "lisa_garcia_work___clinic_to_cvs_pharmacy",
  "description": "Lisa Garcia: Work___Clinic \u2192 Cvs_Pharmacy",
  "start_location": "33.749, -84.382",
  "end_location": "33.755, -84.384",
  "waypoints": [
    {
      "latitude": 33.749,
      "longitude": -84.382,
      "street_name": "Parking Exit",
      "speed_limit": 15,
      "has_traffic_light": false,
      "traffic_control": "none"
    },
    {
      "latitude": 33.7500,
      "longitude": -84.3825,
      "street_name": "Andrew Young International Boulevard NW",
      "speed_limit": 35,
      "has_traffic_light": false,
      "traffic_control": "none"
    },
    {
      "latitude": 33.7515,
      "longitude": -84.3830,
      "street_name": "Peachtree Center Avenue NE",
      "speed_limit": 35,
      "has_traffic_light": true,
      "traffic_control": "traffic_light"
    },
    {
      "latitude": 33.7530,
      "longitude": -84.3835,
      "street_name": "Carnegie Way NW",
      "speed_limit": 25,
      "has_traffic_light": true,
      "traffic_control": "traffic_light"
    },
    {
      "latitude": 33.755,
      "longitude": -84.384,
      "street_name": "Destination Parking",
      "speed_limit": 15,
      "has_traffic_light": false,
      "traffic_control": "none"
    }
  ]
}
