{
  "name": "maria_martinez_family_home_smyrna_to_base",
  "description": "Maria Martinez: Family_Home_Smyrna \u2192 Base",
  "start_location": "33.8635, -84.5085",
  "end_location": "33.8840, -84.5144",
  "waypoints": [
    {
      "latitude": 33.8635,
      "longitude": -84.5085,
      "street_name": "Parking Exit",
      "speed_limit": 15,
      "has_traffic_light": false,
      "traffic_control": "none"
    },
    {
      "latitude": 33.8658,
      "longitude": -84.5088,
      "street_name": "Spring Road SE",
      "speed_limit": 25,
      "has_traffic_light": false,
      "traffic_control": "none"
    },
    {
      "latitude": 33.8685,
      "longitude": -84.5095,
      "street_name": "Campbell Road SE",
      "speed_limit": 35,
      "has_traffic_light": false,
      "traffic_control": "none"
    },
    {
      "latitude": 33.8715,
      "longitude": -84.5105,
      "street_name": "South Cobb Drive SE",
      "speed_limit": 45,
      "has_traffic_light": true,
      "traffic_control": "traffic_light"
    },
    {
      "latitude": 33.8755,
      "longitude": -84.5115,
      "street_name": "South Cobb Drive SE",
      "speed_limit": 45,
      "has_traffic_light": false,
      "traffic_control": "none"
    },
    {
      "latitude": 33.8785,
      "longitude": -84.5125,
      "street_name": "King Springs Road SE",
      "speed_limit": 35,
      "has_traffic_light": true,
      "traffic_control": "traffic_light"
    },
    {
      "latitude": 33.8812,
      "longitude": -84.5135,
      "street_name": "Concord Road SE",
      "speed_limit": 35,
      "has_traffic_light": false,
      "traffic_control": "none"
    },
    {
      "latitude": 33.8828,
      "longitude": -84.5142,
      "street_name": "Concord Road SE",
      "speed_limit": 25,
      "has_traffic_light": false,
      "traffic_control": "none"
    },
    {
      "latitude": 33.8840,
      "longitude": -84.5144,
      "street_name": "Destination Parking",
      "speed_limit": 15,
      "has_traffic_light": false,
      "traffic_control": "none"
    }
  ]
}
