{
  "name": "nicole_foster_east_point_historic_to_base",
  "description": "Nicole Foster: East_Point_Historic \u2192 Base",
  "start_location": "33.6765, -84.4397",
  "end_location": "33.689, -84.4533",
  "waypoints": [
    {
      "latitude": 33.6765,
      "longitude": -84.4397,
      "street_name": "Residential Driveway",
      "speed_limit": 15,
      "has_traffic_light": false,
      "traffic_control": "none"
    },
    {
      "latitude": 33.677235,
      "longitude": -84.440501,
      "street_name": "Argonne Avenue",
      "speed_limit": 25,
      "has_traffic_light": false,
      "traffic_control": "none"
    },
    {
      "latitude": 33.67797,
      "longitude": -84.4413,
      "street_name": "North Highland Avenue",
      "speed_limit": 25,
      "has_traffic_light": false,
      "traffic_control": "none"
    },
    {
      "latitude": 33.678707,
      "longitude": -84.442101,
      "street_name": "Windy Hill Road",
      "speed_limit": 35,
      "has_traffic_light": false,
      "traffic_control": "none"
    },
    {
      "latitude": 33.67944,
      "longitude": -84.4429,
      "street_name": "Kimball Bridge Road",
      "speed_limit": 45,
      "has_traffic_light": true,
      "traffic_control": "traffic_light"
    },
    {
      "latitude": 33.680177,
      "longitude": -84.4437,
      "street_name": "Mall of Georgia Boulevard",
      "speed_limit": 45,
      "has_traffic_light": false,
      "traffic_control": "none"
    },
    {
      "latitude": 33.680912,
      "longitude": -84.444499,
      "street_name": "North Highland Avenue",
      "speed_limit": 45,
      "has_traffic_light": false,
      "traffic_control": "none"
    },
    {
      "latitude": 33.681647,
      "longitude": -84.445301,
      "street_name": "Lilburn Stone Mountain Road",
      "speed_limit": 45,
      "has_traffic_light": false,
      "traffic_control": "none"
    },
    {
      "latitude": 33.682382,
      "longitude": -84.4461,
      "street_name": "13th Street",
      "speed_limit": 35,
      "has_traffic_light": true,
      "traffic_control": "traffic_light"
    },
    {
      "latitude": 33.683119,
      "longitude": -84.446901,
      "street_name": "Old Peachtree Road",
      "speed_limit": 45,
      "has_traffic_light": false,
      "traffic_control": "none"
    },
    {
      "latitude": 33.683853,
      "longitude": -84.447699,
      "street_name": "Pleasant Hill Road",
      "speed_limit": 45,
      "has_traffic_light": false,
      "traffic_control": "none"
    },
    {
      "latitude": 33.684588,
      "longitude": -84.448501,
      "street_name": "Pleasant Hill Road",
      "speed_limit": 45,
      "has_traffic_light": false,
      "traffic_control": "none"
    },
    {
      "latitude": 33.685323,
      "longitude": -84.449299,
      "street_name": "Holcomb Bridge Road",
      "speed_limit": 45,
      "has_traffic_light": true,
      "traffic_control": "traffic_light"
    },
    {
      "latitude": 33.686059,
      "longitude": -84.4501,
      "street_name": "Myrtle Street",
      "speed_limit": 35,
      "has_traffic_light": false,
      "traffic_control": "none"
    },
    {
      "latitude": 33.686795,
      "longitude": -84.450899,
      "street_name": "7th Street",
      "speed_limit": 35,
      "has_traffic_light": false,
      "traffic_control": "yield"
    },
    {
      "latitude": 33.687529,
      "longitude": -84.451699,
      "street_name": "Peachtree Parkway",
      "speed_limit": 45,
      "has_traffic_light": false,
      "traffic_control": "none"
    },
    {
      "latitude": 33.688264,
      "longitude": -84.452501,
      "street_name": "Beverly Road",
      "speed_limit": 25,
      "has_traffic_light": false,
      "traffic_control": "none"
    },
    {
      "latitude": 33.689,
      "longitude": -84.4533,
      "street_name": "Destination Parking",
      "speed_limit": 15,
      "has_traffic_light": false,
      "traffic_control": "none"
    }
  ]
}