{
  "name": "ryan_anderson_base_to_work___airport_area",
  "description": "Ryan Anderson: Base \u2192 Work___Airport_Area",
  "start_location": "33.3968, -84.593",
  "end_location": "33.6367, -84.4281",
  "waypoints": [
    {
      "latitude": 33.3968,
      "longitude": -84.593,
      "street_name": "Residential Driveway",
      "speed_limit": 15,
      "has_traffic_light": false,
      "traffic_control": "none"
    },
    {
      "latitude": 33.40295,
      "longitude": -84.588771,
      "street_name": "Cheshire Bridge Road",
      "speed_limit": 25,
      "has_traffic_light": false,
      "traffic_control": "none"
    },
    {
      "latitude": 33.409102,
      "longitude": -84.584543,
      "street_name": "Highway 42",
      "speed_limit": 55,
      "has_traffic_light": false,
      "traffic_control": "none"
    },
    {
      "latitude": 33.415254,
      "longitude": -84.580316,
      "street_name": "Cypress Street",
      "speed_limit": 35,
      "has_traffic_light": false,
      "traffic_control": "none"
    },
    {
      "latitude": 33.421405,
      "longitude": -84.576088,
      "street_name": "GA-400 South",
      "speed_limit": 55,
      "has_traffic_light": false,
      "traffic_control": "none"
    },
    {
      "latitude": 33.427557,
      "longitude": -84.57186,
      "street_name": "Spot Road",
      "speed_limit": 35,
      "has_traffic_light": true,
      "traffic_control": "traffic_light"
    },
    {
      "latitude": 33.433709,
      "longitude": -84.567631,
      "street_name": "Peachtree Street NE",
      "speed_limit": 35,
      "has_traffic_light": false,
      "traffic_control": "none"
    },
    {
      "latitude": 33.439858,
      "longitude": -84.563403,
      "street_name": "Spring Street",
      "speed_limit": 35,
      "has_traffic_light": false,
      "traffic_control": "yield"
    },
    {
      "latitude": 33.446009,
      "longitude": -84.559175,
      "street_name": "Union Hill Road",
      "speed_limit": 45,
      "has_traffic_light": true,
      "traffic_control": "traffic_light"
    },
    {
      "latitude": 33.452161,
      "longitude": -84.554946,
      "street_name": "17th Street",
      "speed_limit": 35,
      "has_traffic_light": false,
      "traffic_control": "none"
    },
    {
      "latitude": 33.458313,
      "longitude": -84.550718,
      "street_name": "Satellite Boulevard",
      "speed_limit": 45,
      "has_traffic_light": false,
      "traffic_control": "none"
    },
    {
      "latitude": 33.464464,
      "longitude": -84.546491,
      "street_name": "Piedmont Circle",
      "speed_limit": 45,
      "has_traffic_light": false,
      "traffic_control": "none"
    },
    {
      "latitude": 33.470616,
      "longitude": -84.542261,
      "street_name": "Piedmont Road",
      "speed_limit": 45,
      "has_traffic_light": true,
      "traffic_control": "traffic_light"
    },
    {
      "latitude": 33.476767,
      "longitude": -84.538034,
      "street_name": "Emory Road",
      "speed_limit": 45,
      "has_traffic_light": false,
      "traffic_control": "none"
    },
    {
      "latitude": 33.482919,
      "longitude": -84.533805,
      "street_name": "Rock Springs Road",
      "speed_limit": 45,
      "has_traffic_light": false,
      "traffic_control": "none"
    },
    {
      "latitude": 33.489069,
      "longitude": -84.529576,
      "street_name": "Memorial Drive",
      "speed_limit": 45,
      "has_traffic_light": false,
      "traffic_control": "none"
    },
    {
      "latitude": 33.495221,
      "longitude": -84.525349,
      "street_name": "Briarcliff Road",
      "speed_limit": 45,
      "has_traffic_light": true,
      "traffic_control": "traffic_light"
    },
    {
      "latitude": 33.501373,
      "longitude": -84.521121,
      "street_name": "I-20 West",
      "speed_limit": 70,
      "has_traffic_light": false,
      "traffic_control": "none"
    },
    {
      "latitude": 33.507522,
      "longitude": -84.516892,
      "street_name": "Oakdale Road",
      "speed_limit": 45,
      "has_traffic_light": false,
      "traffic_control": "none"
    },
    {
      "latitude": 33.513674,
      "longitude": -84.512663,
      "street_name": "Bethelview Road",
      "speed_limit": 45,
      "has_traffic_light": false,
      "traffic_control": "none"
    },
    {
      "latitude": 33.519826,
      "longitude": -84.508435,
      "street_name": "9th Street",
      "speed_limit": 35,
      "has_traffic_light": true,
      "traffic_control": "traffic_light"
    },
    {
      "latitude": 33.525977,
      "longitude": -84.504208,
      "street_name": "Lakeshore Drive",
      "speed_limit": 45,
      "has_traffic_light": false,
      "traffic_control": "none"
    },
    {
      "latitude": 33.532128,
      "longitude": -84.499979,
      "street_name": "Myrtle Street",
      "speed_limit": 35,
      "has_traffic_light": false,
      "traffic_control": "none"
    },
    {
      "latitude": 33.53828,
      "longitude": -84.495751,
      "street_name": "Juniper Street",
      "speed_limit": 35,
      "has_traffic_light": false,
      "traffic_control": "none"
    },
    {
      "latitude": 33.544431,
      "longitude": -84.491523,
      "street_name": "Perimeter Center West",
      "speed_limit": 45,
      "has_traffic_light": true,
      "traffic_control": "traffic_light"
    },
    {
      "latitude": 33.550583,
      "longitude": -84.487295,
      "street_name": "I-75 North",
      "speed_limit": 70,
      "has_traffic_light": false,
      "traffic_control": "none"
    },
    {
      "latitude": 33.556732,
      "longitude": -84.483067,
      "street_name": "Scenic Highway",
      "speed_limit": 55,
      "has_traffic_light": false,
      "traffic_control": "none"
    },
    {
      "latitude": 33.562885,
      "longitude": -84.478839,
      "street_name": "Peachtree Industrial Blvd",
      "speed_limit": 45,
      "has_traffic_light": false,
      "traffic_control": "none"
    },
    {
      "latitude": 33.569036,
      "longitude": -84.47461,
      "street_name": "Westminster Drive",
      "speed_limit": 45,
      "has_traffic_light": true,
      "traffic_control": "traffic_light"
    },
    {
      "latitude": 33.575188,
      "longitude": -84.470382,
      "street_name": "5th Street",
      "speed_limit": 35,
      "has_traffic_light": false,
      "traffic_control": "none"
    },
    {
      "latitude": 33.581338,
      "longitude": -84.466154,
      "street_name": "Freedom Parkway",
      "speed_limit": 45,
      "has_traffic_light": true,
      "traffic_control": "traffic_light"
    },
    {
      "latitude": 33.58749,
      "longitude": -84.461926,
      "street_name": "18th Street",
      "speed_limit": 35,
      "has_traffic_light": false,
      "traffic_control": "none"
    },
    {
      "latitude": 33.593642,
      "longitude": -84.457697,
      "street_name": "Decatur Street",
      "speed_limit": 35,
      "has_traffic_light": false,
      "traffic_control": "none"
    },
    {
      "latitude": 33.599791,
      "longitude": -84.453469,
      "street_name": "Pine Street",
      "speed_limit": 35,
      "has_traffic_light": false,
      "traffic_control": "none"
    },
    {
      "latitude": 33.605944,
      "longitude": -84.449242,
      "street_name": "Virginia Avenue",
      "speed_limit": 35,
      "has_traffic_light": false,
      "traffic_control": "none"
    },
    {
      "latitude": 33.612096,
      "longitude": -84.445014,
      "street_name": "Town Center Boulevard",
      "speed_limit": 45,
      "has_traffic_light": false,
      "traffic_control": "none"
    },
    {
      "latitude": 33.618247,
      "longitude": -84.440784,
      "street_name": "Holcomb Bridge Road",
      "speed_limit": 35,
      "has_traffic_light": false,
      "traffic_control": "none"
    },
    {
      "latitude": 33.624397,
      "longitude": -84.436556,
      "street_name": "Lanier Islands Parkway",
      "speed_limit": 45,
      "has_traffic_light": false,
      "traffic_control": "none"
    },
    {
      "latitude": 33.630548,
      "longitude": -84.432327,
      "street_name": "Mansell Road",
      "speed_limit": 25,
      "has_traffic_light": false,
      "traffic_control": "none"
    },
    {
      "latitude": 33.6367,
      "longitude": -84.4281,
      "street_name": "Destination Parking",
      "speed_limit": 15,
      "has_traffic_light": false,
      "traffic_control": "none"
    }
  ]
}