{
  "name": "sarah_chen_gym_to_parents_house",
  "description": "Sarah Chen: Gym to Parents House (Ansley Park)",
  "start_location": "33.762, -84.385",
  "end_location": "33.775, -84.39",
  "waypoints": [
    {
      "latitude": 33.762,
      "longitude": -84.385,
      "street_name": "LA Fitness Midtown - West Peachtree Street",
      "speed_limit": 15,
      "has_traffic_light": false,
      "traffic_control": "none"
    },
    {
      "latitude": 33.7640,
      "longitude": -84.3855,
      "street_name": "West Peachtree Street NW",
      "speed_limit": 35,
      "has_traffic_light": false,
      "traffic_control": "none"
    },
    {
      "latitude": 33.7660,
      "longitude": -84.3860,
      "street_name": "West Peachtree Street at 15th Street",
      "speed_limit": 35,
      "has_traffic_light": true,
      "traffic_control": "traffic_light"
    },
    {
      "latitude": 33.7680,
      "longitude": -84.3865,
      "street_name": "West Peachtree Street at 17th Street",
      "speed_limit": 35,
      "has_traffic_light": true,
      "traffic_control": "traffic_light"
    },
    {
      "latitude": 33.7700,
      "longitude": -84.3875,
      "street_name": "Peachtree Circle NE",
      "speed_limit": 30,
      "has_traffic_light": false,
      "traffic_control": "none"
    },
    {
      "latitude": 33.7715,
      "longitude": -84.3882,
      "street_name": "The Prado NE (Ansley Park)",
      "speed_limit": 25,
      "has_traffic_light": false,
      "traffic_control": "none"
    },
    {
      "latitude": 33.7730,
      "longitude": -84.3890,
      "street_name": "Westminster Drive NE (Ansley Park)",
      "speed_limit": 25,
      "has_traffic_light": false,
      "traffic_control": "stop_sign"
    },
    {
      "latitude": 33.775,
      "longitude": -84.39,
      "street_name": "Parents House - Ansley Park",
      "speed_limit": 15,
      "has_traffic_light": false,
      "traffic_control": "none"
    }
  ]
}
