{
  "name": "stephanie_miller_the_battery_atlanta_to_silver_comet_trail",
  "description": "Stephanie Miller: The_Battery_Atlanta \u2192 Silver_Comet_Trail",
  "start_location": "33.8907, -84.4679",
  "end_location": "33.8695, -84.5227",
  "waypoints": [
    {
      "latitude": 33.8907,
      "longitude": -84.4679,
      "street_name": "Residential Driveway",
      "speed_limit": 15,
      "has_traffic_light": false,
      "traffic_control": "none"
    },
    {
      "latitude": 33.890157,
      "longitude": -84.469305,
      "street_name": "Webb Bridge Road",
      "speed_limit": 25,
      "has_traffic_light": false,
      "traffic_control": "none"
    },
    {
      "latitude": 33.889613,
      "longitude": -84.47071,
      "street_name": "Greenwood Avenue",
      "speed_limit": 25,
      "has_traffic_light": false,
      "traffic_control": "none"
    },
    {
      "latitude": 33.88907,
      "longitude": -84.472115,
      "street_name": "13th Street",
      "speed_limit": 35,
      "has_traffic_light": false,
      "traffic_control": "none"
    },
    {
      "latitude": 33.888526,
      "longitude": -84.47352,
      "street_name": "Holiday Road",
      "speed_limit": 35,
      "has_traffic_light": false,
      "traffic_control": "none"
    },
    {
      "latitude": 33.887983,
      "longitude": -84.474925,
      "street_name": "North Avenue",
      "speed_limit": 35,
      "has_traffic_light": true,
      "traffic_control": "traffic_light"
    },
    {
      "latitude": 33.887438,
      "longitude": -84.476332,
      "street_name": "Cheshire Bridge Road",
      "speed_limit": 35,
      "has_traffic_light": false,
      "traffic_control": "none"
    },
    {
      "latitude": 33.886895,
      "longitude": -84.477736,
      "street_name": "Union Hill Road",
      "speed_limit": 35,
      "has_traffic_light": false,
      "traffic_control": "yield"
    },
    {
      "latitude": 33.886352,
      "longitude": -84.47914,
      "street_name": "Old Peachtree Road",
      "speed_limit": 45,
      "has_traffic_light": true,
      "traffic_control": "traffic_light"
    },
    {
      "latitude": 33.885807,
      "longitude": -84.480546,
      "street_name": "Spalding Drive",
      "speed_limit": 45,
      "has_traffic_light": false,
      "traffic_control": "none"
    },
    {
      "latitude": 33.885265,
      "longitude": -84.481952,
      "street_name": "Collier Road",
      "speed_limit": 45,
      "has_traffic_light": false,
      "traffic_control": "none"
    },
    {
      "latitude": 33.88472,
      "longitude": -84.483356,
      "street_name": "Clairmont Road",
      "speed_limit": 45,
      "has_traffic_light": false,
      "traffic_control": "none"
    },
    {
      "latitude": 33.884176,
      "longitude": -84.484762,
      "street_name": "West Peachtree Street",
      "speed_limit": 35,
      "has_traffic_light": true,
      "traffic_control": "traffic_light"
    },
    {
      "latitude": 33.883632,
      "longitude": -84.486167,
      "street_name": "Kimball Bridge Road",
      "speed_limit": 45,
      "has_traffic_light": false,
      "traffic_control": "none"
    },
    {
      "latitude": 33.883089,
      "longitude": -84.487572,
      "street_name": "West Wesley Road",
      "speed_limit": 45,
      "has_traffic_light": false,
      "traffic_control": "none"
    },
    {
      "latitude": 33.882545,
      "longitude": -84.488977,
      "street_name": "I-20 East",
      "speed_limit": 70,
      "has_traffic_light": false,
      "traffic_control": "none"
    },
    {
      "latitude": 33.882003,
      "longitude": -84.490383,
      "street_name": "Highway 9 (Roswell Road)",
      "speed_limit": 55,
      "has_traffic_light": false,
      "traffic_control": "none"
    },
    {
      "latitude": 33.881458,
      "longitude": -84.491788,
      "street_name": "Haynes Bridge Road",
      "speed_limit": 45,
      "has_traffic_light": false,
      "traffic_control": "none"
    },
    {
      "latitude": 33.880915,
      "longitude": -84.493192,
      "street_name": "Boulevard",
      "speed_limit": 45,
      "has_traffic_light": true,
      "traffic_control": "traffic_light"
    },
    {
      "latitude": 33.880372,
      "longitude": -84.494598,
      "street_name": "I-75 South",
      "speed_limit": 70,
      "has_traffic_light": false,
      "traffic_control": "none"
    },
    {
      "latitude": 33.879827,
      "longitude": -84.496003,
      "street_name": "Lakeshore Drive",
      "speed_limit": 45,
      "has_traffic_light": true,
      "traffic_control": "traffic_light"
    },
    {
      "latitude": 33.879284,
      "longitude": -84.497408,
      "street_name": "Piedmont Avenue",
      "speed_limit": 45,
      "has_traffic_light": false,
      "traffic_control": "none"
    },
    {
      "latitude": 33.878741,
      "longitude": -84.498812,
      "street_name": "5th Street",
      "speed_limit": 35,
      "has_traffic_light": false,
      "traffic_control": "none"
    },
    {
      "latitude": 33.878198,
      "longitude": -84.500219,
      "street_name": "Charles Allen Drive",
      "speed_limit": 45,
      "has_traffic_light": false,
      "traffic_control": "none"
    },
    {
      "latitude": 33.877654,
      "longitude": -84.501622,
      "street_name": "Tuxedo Road",
      "speed_limit": 45,
      "has_traffic_light": true,
      "traffic_control": "traffic_light"
    },
    {
      "latitude": 33.87711,
      "longitude": -84.503028,
      "street_name": "Cumming City Beach Road",
      "speed_limit": 45,
      "has_traffic_light": false,
      "traffic_control": "none"
    },
    {
      "latitude": 33.876567,
      "longitude": -84.504433,
      "street_name": "Tuxedo Road",
      "speed_limit": 45,
      "has_traffic_light": false,
      "traffic_control": "none"
    },
    {
      "latitude": 33.876023,
      "longitude": -84.505839,
      "street_name": "17th Street",
      "speed_limit": 35,
      "has_traffic_light": false,
      "traffic_control": "none"
    },
    {
      "latitude": 33.87548,
      "longitude": -84.507243,
      "street_name": "Highway 9 (Roswell Road)",
      "speed_limit": 55,
      "has_traffic_light": false,
      "traffic_control": "none"
    },
    {
      "latitude": 33.874936,
      "longitude": -84.508648,
      "street_name": "Highway 316",
      "speed_limit": 55,
      "has_traffic_light": false,
      "traffic_control": "none"
    },
    {
      "latitude": 33.874391,
      "longitude": -84.510054,
      "street_name": "Veterans Memorial Highway",
      "speed_limit": 55,
      "has_traffic_light": false,
      "traffic_control": "none"
    },
    {
      "latitude": 33.87385,
      "longitude": -84.51146,
      "street_name": "McGinnis Ferry Road",
      "speed_limit": 45,
      "has_traffic_light": false,
      "traffic_control": "none"
    },
    {
      "latitude": 33.873305,
      "longitude": -84.512864,
      "street_name": "Windward Parkway",
      "speed_limit": 45,
      "has_traffic_light": false,
      "traffic_control": "none"
    },
    {
      "latitude": 33.872762,
      "longitude": -84.514269,
      "street_name": "Chamblee Tucker Road",
      "speed_limit": 35,
      "has_traffic_light": false,
      "traffic_control": "none"
    },
    {
      "latitude": 33.872217,
      "longitude": -84.515675,
      "street_name": "Webb Bridge Road",
      "speed_limit": 35,
      "has_traffic_light": false,
      "traffic_control": "none"
    },
    {
      "latitude": 33.871674,
      "longitude": -84.51708,
      "street_name": "Crossville Road",
      "speed_limit": 35,
      "has_traffic_light": true,
      "traffic_control": "traffic_light"
    },
    {
      "latitude": 33.871131,
      "longitude": -84.518485,
      "street_name": "Glen Iris Drive",
      "speed_limit": 35,
      "has_traffic_light": false,
      "traffic_control": "none"
    },
    {
      "latitude": 33.870586,
      "longitude": -84.519891,
      "street_name": "Scott Boulevard",
      "speed_limit": 45,
      "has_traffic_light": false,
      "traffic_control": "none"
    },
    {
      "latitude": 33.870044,
      "longitude": -84.521295,
      "street_name": "Memorial Drive",
      "speed_limit": 25,
      "has_traffic_light": false,
      "traffic_control": "none"
    },
    {
      "latitude": 33.8695,
      "longitude": -84.5227,
      "street_name": "Destination Parking",
      "speed_limit": 15,
      "has_traffic_light": false,
      "traffic_control": "none"
    }
  ]
}